[
  {
    "id": 1,
    "code": "192",
    "name": "Avtobusna postaja",
    "imageUrl": "",
    "routes": null,
    "departureTimes": null,
    "location": {
      "lat": 46.559717,
      "lon": 15.65543
    }
  },
  {
    "id": 2,
    "code": "210",
    "name": "Avtobusna postaja",
    "imageUrl": "",
    "routes": null,
    "departureTimes": null,
    "location": {
      "lat": 46.559717,
      "lon": 15.65543
    }
  },
  {
    "id": 3,
    "code": "424",
    "name": "ŽP Maribor",
    "imageUrl": "",
    "routes": null,
    "departureTimes": null,
    "location": {
      "lat": 46.561852,
      "lon": 15.656836
    }
  },
  {
    "id": 4,
    "code": "423",
    "name": "ŽP Maribor",
    "imageUrl": "",
    "routes": null,
    "departureTimes": null,
    "location": {
      "lat": 46.561852,
      "lon": 15.656836
    }
  },
  {
    "id": 5,
    "code": "199",
    "name": "Prlek",
    "imageUrl": "",
    "routes": null,
    "departureTimes": null,
    "location": {
      "lat": 46.560667,
      "lon": 15.657971
    }
  },
  {
    "id": 6,
    "code": "200",
    "name": "Prlek",
    "imageUrl": "",
    "routes": null,
    "departureTimes": null,
    "location": {
      "lat": 46.560667,
      "lon": 15.657971
    }
  },
  {
    "id": 7,
    "code": "358",
    "name": "City - zdravstveni dom",
    "imageUrl": "",
    "routes": null,
    "departureTimes": null,
    "location": {
      "lat": 46.558644,
      "lon": 15.650901
    }
  },
  {
    "id": 8,
    "code": "359",
    "name": "City - zdravstveni dom",
    "imageUrl": "",
    "routes": null,
    "departureTimes": null,
    "location": {
      "lat": 46.558644,
      "lon": 15.650901
    }
  },
  {
    "id": 9,
    "code": "84",
    "name": "Glavni trg - Elektro",
    "imageUrl": "",
    "routes": null,
    "departureTimes": null,
    "location": {
      "lat": 46.557378,
      "lon": 15.646796
    }
  },
  {
    "id": 10,
    "code": "85",
    "name": "Glavni trg - Elektro",
    "imageUrl": "",
    "routes": null,
    "departureTimes": null,
    "location": {
      "lat": 46.557378,
      "lon": 15.646796
    }
  },
  {
    "id": 18,
    "code": "130",
    "name": "Koroški veter",
    "imageUrl": "",
    "routes": null,
    "departureTimes": null,
    "location": {
      "lat": 46.559293,
      "lon": 15.635065
    }
  },
  {
    "id": 19,
    "code": "131",
    "name": "Koroški veter",
    "imageUrl": "",
    "routes": null,
    "departureTimes": null,
    "location": {
      "lat": 46.559293,
      "lon": 15.635065
    }
  },
  {
    "id": 20,
    "code": "133",
    "name": "Koroška vrata - Mirni zaliv",
    "imageUrl": "",
    "routes": null,
    "departureTimes": null,
    "location": {
      "lat": 46.560616,
      "lon": 15.629859
    }
  },
  {
    "id": 21,
    "code": "134",
    "name": "Koroška vrata - Mirni zaliv",
    "imageUrl": "",
    "routes": null,
    "departureTimes": null,
    "location": {
      "lat": 46.560616,
      "lon": 15.629859
    }
  },
  {
    "id": 22,
    "code": "88",
    "name": "Univerzitetni kampus 1",
    "imageUrl": "",
    "routes": null,
    "departureTimes": null,
    "location": {
      "lat": 46.562801,
      "lon": 15.628989
    }
  },
  {
    "id": 23,
    "code": "89",
    "name": "Univerzitetni kampus 1",
    "imageUrl": "",
    "routes": null,
    "departureTimes": null,
    "location": {
      "lat": 46.562801,
      "lon": 15.628989
    }
  },
  {
    "id": 25,
    "code": "92",
    "name": "Gosposvetska - Kosarjeva",
    "imageUrl": "",
    "routes": null,
    "departureTimes": null,
    "location": {
      "lat": 46.561857,
      "lon": 15.633332
    }
  },
  {
    "id": 26,
    "code": "93",
    "name": "Gosposvetska - Kosarjeva",
    "imageUrl": "",
    "routes": null,
    "departureTimes": null,
    "location": {
      "lat": 46.561857,
      "lon": 15.633332
    }
  },
  {
    "id": 27,
    "code": "94",
    "name": "Gosposvetska - Vrbanska",
    "imageUrl": "",
    "routes": null,
    "departureTimes": null,
    "location": {
      "lat": 46.561235,
      "lon": 15.636851
    }
  },
  {
    "id": 28,
    "code": "95",
    "name": "Gosposvetska - Vrbanska",
    "imageUrl": "",
    "routes": null,
    "departureTimes": null,
    "location": {
      "lat": 46.561235,
      "lon": 15.636851
    }
  },
  {
    "id": 29,
    "code": "90",
    "name": "Tretja gimnazija",
    "imageUrl": "",
    "routes": null,
    "departureTimes": null,
    "location": {
      "lat": 46.560691,
      "lon": 15.640481
    }
  },
  {
    "id": 30,
    "code": "91",
    "name": "Tretja gimnazija",
    "imageUrl": "",
    "routes": null,
    "departureTimes": null,
    "location": {
      "lat": 46.560691,
      "lon": 15.640481
    }
  },
  {
    "id": 32,
    "code": "393",
    "name": "Mitnica",
    "imageUrl": "",
    "routes": null,
    "departureTimes": null,
    "location": {
      "lat": 46.566171,
      "lon": 15.632983
    }
  },
  {
    "id": 33,
    "code": "394",
    "name": "Mitnica",
    "imageUrl": "",
    "routes": null,
    "departureTimes": null,
    "location": {
      "lat": 46.566171,
      "lon": 15.632983
    }
  },
  {
    "id": 37,
    "code": "144",
    "name": "Krekova - občina",
    "imageUrl": "",
    "routes": null,
    "departureTimes": null,
    "location": {
      "lat": 46.562065,
      "lon": 15.649602
    }
  },
  {
    "id": 39,
    "code": "303",
    "name": "Razlagova - EPF",
    "imageUrl": "",
    "routes": null,
    "departureTimes": null,
    "location": {
      "lat": 46.562136,
      "lon": 15.654084
    }
  },
  {
    "id": 40,
    "code": "143",
    "name": "Krekova",
    "imageUrl": "",
    "routes": null,
    "departureTimes": null,
    "location": {
      "lat": 46.562017,
      "lon": 15.643599
    }
  },
  {
    "id": 41,
    "code": "395",
    "name": "Kamniški drevored",
    "imageUrl": "",
    "routes": null,
    "departureTimes": null,
    "location": {
      "lat": 46.570316,
      "lon": 15.627311
    }
  },
  {
    "id": 42,
    "code": "396",
    "name": "Kamniški drevored",
    "imageUrl": "",
    "routes": null,
    "departureTimes": null,
    "location": {
      "lat": 46.570316,
      "lon": 15.627311
    }
  },
  {
    "id": 43,
    "code": "105",
    "name": "Kamnica - hipodrom",
    "imageUrl": "",
    "routes": null,
    "departureTimes": null,
    "location": {
      "lat": 46.574209,
      "lon": 15.622491
    }
  },
  {
    "id": 44,
    "code": "106",
    "name": "Kamnica - hipodrom",
    "imageUrl": "",
    "routes": null,
    "departureTimes": null,
    "location": {
      "lat": 46.574209,
      "lon": 15.622491
    }
  },
  {
    "id": 45,
    "code": "111",
    "name": "Kamnica - šola",
    "imageUrl": "",
    "routes": null,
    "departureTimes": null,
    "location": {
      "lat": 46.573495,
      "lon": 15.617011
    }
  },
  {
    "id": 46,
    "code": "112",
    "name": "Kamnica - šola",
    "imageUrl": "",
    "routes": null,
    "departureTimes": null,
    "location": {
      "lat": 46.573495,
      "lon": 15.617011
    }
  },
  {
    "id": 47,
    "code": "113",
    "name": "Kamnica - trgovina",
    "imageUrl": "",
    "routes": null,
    "departureTimes": null,
    "location": {
      "lat": 46.574042,
      "lon": 15.612542
    }
  },
  {
    "id": 48,
    "code": "114",
    "name": "Kamnica - trgovina",
    "imageUrl": "",
    "routes": null,
    "departureTimes": null,
    "location": {
      "lat": 46.574042,
      "lon": 15.612542
    }
  },
  {
    "id": 49,
    "code": "31",
    "name": "Cesta v Rošpoh 65",
    "imageUrl": "",
    "routes": null,
    "departureTimes": null,
    "location": {
      "lat": 46.579404,
      "lon": 15.613768
    }
  },
  {
    "id": 50,
    "code": "32",
    "name": "Cesta v Rošpoh 65",
    "imageUrl": "",
    "routes": null,
    "departureTimes": null,
    "location": {
      "lat": 46.579404,
      "lon": 15.613768
    }
  },
  {
    "id": 51,
    "code": "29",
    "name": "Cesta v Rošpoh 115",
    "imageUrl": "",
    "routes": null,
    "departureTimes": null,
    "location": {
      "lat": 46.583887,
      "lon": 15.615325
    }
  },
  {
    "id": 52,
    "code": "30",
    "name": "Cesta v Rošpoh 115",
    "imageUrl": "",
    "routes": null,
    "departureTimes": null,
    "location": {
      "lat": 46.583887,
      "lon": 15.615325
    }
  },
  {
    "id": 53,
    "code": "316",
    "name": "Rošpoh - odcep Urban",
    "imageUrl": "",
    "routes": null,
    "departureTimes": null,
    "location": {
      "lat": 46.587338,
      "lon": 15.616655
    }
  },
  {
    "id": 54,
    "code": "315",
    "name": "Rošpoh - odcep Urban",
    "imageUrl": "",
    "routes": null,
    "departureTimes": null,
    "location": {
      "lat": 46.587338,
      "lon": 15.616655
    }
  },
  {
    "id": 55,
    "code": "313",
    "name": "Rošpoh - Hojnik",
    "imageUrl": "",
    "routes": null,
    "departureTimes": null,
    "location": {
      "lat": 46.597776,
      "lon": 15.619418
    }
  },
  {
    "id": 56,
    "code": "312",
    "name": "Rošpoh",
    "imageUrl": "",
    "routes": null,
    "departureTimes": null,
    "location": {
      "lat": 46.601692,
      "lon": 15.621163
    }
  },
  {
    "id": 57,
    "code": "110",
    "name": "Kamnica",
    "imageUrl": "",
    "routes": null,
    "departureTimes": null,
    "location": {
      "lat": 46.572481,
      "lon": 15.612652
    }
  },
  {
    "id": 58,
    "code": "107",
    "name": "Kamnica - križišče",
    "imageUrl": "",
    "routes": null,
    "departureTimes": null,
    "location": {
      "lat": 46.571064,
      "lon": 15.614065
    }
  },
  {
    "id": 59,
    "code": "108",
    "name": "Kamnica - križišče",
    "imageUrl": "",
    "routes": null,
    "departureTimes": null,
    "location": {
      "lat": 46.571064,
      "lon": 15.614065
    }
  },
  {
    "id": 60,
    "code": "194",
    "name": "Mariborski otok - HE",
    "imageUrl": "",
    "routes": null,
    "departureTimes": null,
    "location": {
      "lat": 46.570119,
      "lon": 15.601352
    }
  },
  {
    "id": 61,
    "code": "195",
    "name": "Mariborski otok - HE",
    "imageUrl": "",
    "routes": null,
    "departureTimes": null,
    "location": {
      "lat": 46.570119,
      "lon": 15.601352
    }
  },
  {
    "id": 62,
    "code": "35",
    "name": "Čolnarna",
    "imageUrl": "",
    "routes": null,
    "departureTimes": null,
    "location": {
      "lat": 46.568481,
      "lon": 15.593426
    }
  },
  {
    "id": 63,
    "code": "36",
    "name": "Čolnarna",
    "imageUrl": "",
    "routes": null,
    "departureTimes": null,
    "location": {
      "lat": 46.568481,
      "lon": 15.593426
    }
  },
  {
    "id": 64,
    "code": "21",
    "name": "Bresternica - odcep",
    "imageUrl": "",
    "routes": null,
    "departureTimes": null,
    "location": {
      "lat": 46.567599,
      "lon": 15.585017
    }
  },
  {
    "id": 65,
    "code": "22",
    "name": "Bresternica - odcep",
    "imageUrl": "",
    "routes": null,
    "departureTimes": null,
    "location": {
      "lat": 46.567599,
      "lon": 15.585017
    }
  },
  {
    "id": 66,
    "code": "23",
    "name": "Bresternica - rondo",
    "imageUrl": "",
    "routes": null,
    "departureTimes": null,
    "location": {
      "lat": 46.566701,
      "lon": 15.57866
    }
  },
  {
    "id": 67,
    "code": "24",
    "name": "Bresternica - rondo",
    "imageUrl": "",
    "routes": null,
    "departureTimes": null,
    "location": {
      "lat": 46.566701,
      "lon": 15.57866
    }
  },
  {
    "id": 70,
    "code": "18",
    "name": "Bresternica",
    "imageUrl": "",
    "routes": null,
    "departureTimes": null,
    "location": {
      "lat": 46.566056,
      "lon": 15.571947
    }
  },
  {
    "id": 72,
    "code": "193",
    "name": "Mariborski otok",
    "imageUrl": "",
    "routes": null,
    "departureTimes": null,
    "location": {
      "lat": 46.568666,
      "lon": 15.614559
    }
  },
  {
    "id": 73,
    "code": "349",
    "name": "Fontana",
    "imageUrl": "",
    "routes": null,
    "departureTimes": null,
    "location": {
      "lat": 46.564968,
      "lon": 15.624263
    }
  },
  {
    "id": 74,
    "code": "350",
    "name": "Fontana",
    "imageUrl": "",
    "routes": null,
    "departureTimes": null,
    "location": {
      "lat": 46.564968,
      "lon": 15.624263
    }
  },
  {
    "id": 81,
    "code": "337",
    "name": "Šentiljska - Medved",
    "imageUrl": "",
    "routes": null,
    "departureTimes": null,
    "location": {
      "lat": 46.567289,
      "lon": 15.658896
    }
  },
  {
    "id": 82,
    "code": "338",
    "name": "Šentiljska - Medved",
    "imageUrl": "",
    "routes": null,
    "departureTimes": null,
    "location": {
      "lat": 46.567289,
      "lon": 15.658896
    }
  },
  {
    "id": 83,
    "code": "346",
    "name": "Šubičeva - vrtec",
    "imageUrl": "",
    "routes": null,
    "departureTimes": null,
    "location": {
      "lat": 46.568791,
      "lon": 15.657067
    }
  },
  {
    "id": 84,
    "code": "215",
    "name": "Nadvoz",
    "imageUrl": "",
    "routes": null,
    "departureTimes": null,
    "location": {
      "lat": 46.568097,
      "lon": 15.659518
    }
  },
  {
    "id": 85,
    "code": "135",
    "name": "Koš. dol - Pod vinogradi",
    "imageUrl": "",
    "routes": null,
    "departureTimes": null,
    "location": {
      "lat": 46.572788,
      "lon": 15.659274
    }
  },
  {
    "id": 86,
    "code": "138",
    "name": "Košaški dol - V zavoju",
    "imageUrl": "",
    "routes": null,
    "departureTimes": null,
    "location": {
      "lat": 46.574861,
      "lon": 15.662986
    }
  },
  {
    "id": 87,
    "code": "137",
    "name": "Košaški dol",
    "imageUrl": "",
    "routes": null,
    "departureTimes": null,
    "location": {
      "lat": 46.576146,
      "lon": 15.666803
    }
  },
  {
    "id": 88,
    "code": "136",
    "name": "Košaki - stiskalnica",
    "imageUrl": "",
    "routes": null,
    "departureTimes": null,
    "location": {
      "lat": 46.578054,
      "lon": 15.666996
    }
  },
  {
    "id": 89,
    "code": "214",
    "name": "Na prehodu",
    "imageUrl": "",
    "routes": null,
    "departureTimes": null,
    "location": {
      "lat": 46.581964,
      "lon": 15.666229
    }
  },
  {
    "id": 93,
    "code": "341",
    "name": "Šentiljska - veterinar",
    "imageUrl": "",
    "routes": null,
    "departureTimes": null,
    "location": {
      "lat": 46.581055,
      "lon": 15.663103
    }
  },
  {
    "id": 95,
    "code": "339",
    "name": "Šentiljska - Počehovska",
    "imageUrl": "",
    "routes": null,
    "departureTimes": null,
    "location": {
      "lat": 46.57709,
      "lon": 15.657794
    }
  },
  {
    "id": 97,
    "code": "340",
    "name": "Šentiljska - TMI Košaki",
    "imageUrl": "",
    "routes": null,
    "departureTimes": null,
    "location": {
      "lat": 46.571096,
      "lon": 15.658169
    }
  },
  {
    "id": 98,
    "code": "201",
    "name": "Meljska - trgovina",
    "imageUrl": "",
    "routes": null,
    "departureTimes": null,
    "location": {
      "lat": 46.560514,
      "lon": 15.662161
    }
  },
  {
    "id": 99,
    "code": "202",
    "name": "Meljska - trgovina",
    "imageUrl": "",
    "routes": null,
    "departureTimes": null,
    "location": {
      "lat": 46.560514,
      "lon": 15.662161
    }
  },
  {
    "id": 101,
    "code": "230",
    "name": "Oreško nabrežje 1",
    "imageUrl": "",
    "routes": null,
    "departureTimes": null,
    "location": {
      "lat": 46.556392,
      "lon": 15.66144
    }
  },
  {
    "id": 103,
    "code": "198",
    "name": "Melje",
    "imageUrl": "",
    "routes": null,
    "departureTimes": null,
    "location": {
      "lat": 46.559977,
      "lon": 15.66818
    }
  },
  {
    "id": 104,
    "code": "56",
    "name": "Dravograjska - Sokolska",
    "imageUrl": "",
    "routes": null,
    "departureTimes": null,
    "location": {
      "lat": 46.557368,
      "lon": 15.625449
    }
  },
  {
    "id": 105,
    "code": "52",
    "name": "Prometna šola Maribor",
    "imageUrl": "",
    "routes": null,
    "departureTimes": null,
    "location": {
      "lat": 46.553664,
      "lon": 15.624005
    }
  },
  {
    "id": 106,
    "code": "50",
    "name": "Dravograjska",
    "imageUrl": "",
    "routes": null,
    "departureTimes": null,
    "location": {
      "lat": 46.549942,
      "lon": 15.621805
    }
  },
  {
    "id": 108,
    "code": "397",
    "name": "Supernova",
    "imageUrl": "",
    "routes": null,
    "departureTimes": null,
    "location": {
      "lat": 46.545991,
      "lon": 15.618611
    }
  },
  {
    "id": 109,
    "code": "54",
    "name": "Supernova",
    "imageUrl": "",
    "routes": null,
    "departureTimes": null,
    "location": {
      "lat": 46.545991,
      "lon": 15.618611
    }
  },
  {
    "id": 110,
    "code": "280",
    "name": "Supernova 1",
    "imageUrl": "",
    "routes": null,
    "departureTimes": null,
    "location": {
      "lat": 46.545432,
      "lon": 15.620348
    }
  },
  {
    "id": 111,
    "code": "51",
    "name": "Dravograjska",
    "imageUrl": "",
    "routes": null,
    "departureTimes": null,
    "location": {
      "lat": 46.549942,
      "lon": 15.621805
    }
  },
  {
    "id": 112,
    "code": "53",
    "name": "Prometna šola Maribor",
    "imageUrl": "",
    "routes": null,
    "departureTimes": null,
    "location": {
      "lat": 46.553664,
      "lon": 15.624005
    }
  },
  {
    "id": 113,
    "code": "55",
    "name": "Dravograjska - Sokolska",
    "imageUrl": "",
    "routes": null,
    "departureTimes": null,
    "location": {
      "lat": 46.557368,
      "lon": 15.625449
    }
  },
  {
    "id": 114,
    "code": "163",
    "name": "Limbuška - Pekrska",
    "imageUrl": "",
    "routes": null,
    "departureTimes": null,
    "location": {
      "lat": 46.556416,
      "lon": 15.620624
    }
  },
  {
    "id": 115,
    "code": "164",
    "name": "Limbuška - Pekrska",
    "imageUrl": "",
    "routes": null,
    "departureTimes": null,
    "location": {
      "lat": 46.556416,
      "lon": 15.620624
    }
  },
  {
    "id": 116,
    "code": "166",
    "name": "Limbuška 47",
    "imageUrl": "",
    "routes": null,
    "departureTimes": null,
    "location": {
      "lat": 46.557069,
      "lon": 15.616917
    }
  },
  {
    "id": 117,
    "code": "167",
    "name": "Limbuška 47",
    "imageUrl": "",
    "routes": null,
    "departureTimes": null,
    "location": {
      "lat": 46.557069,
      "lon": 15.616917
    }
  },
  {
    "id": 118,
    "code": "331",
    "name": "Studenci",
    "imageUrl": "",
    "routes": null,
    "departureTimes": null,
    "location": {
      "lat": 46.556847,
      "lon": 15.610385
    }
  },
  {
    "id": 119,
    "code": "330",
    "name": "Studenci",
    "imageUrl": "",
    "routes": null,
    "departureTimes": null,
    "location": {
      "lat": 46.556847,
      "lon": 15.610385
    }
  },
  {
    "id": 120,
    "code": "161",
    "name": "Limbuška - Lesarska",
    "imageUrl": "",
    "routes": null,
    "departureTimes": null,
    "location": {
      "lat": 46.556424,
      "lon": 15.604549
    }
  },
  {
    "id": 121,
    "code": "162",
    "name": "Limbuška - Lesarska",
    "imageUrl": "",
    "routes": null,
    "departureTimes": null,
    "location": {
      "lat": 46.556424,
      "lon": 15.604549
    }
  },
  {
    "id": 122,
    "code": "154",
    "name": "Lesarska šola",
    "imageUrl": "",
    "routes": null,
    "departureTimes": null,
    "location": {
      "lat": 46.562266,
      "lon": 15.601788
    }
  },
  {
    "id": 123,
    "code": "196",
    "name": "Marles",
    "imageUrl": "",
    "routes": null,
    "departureTimes": null,
    "location": {
      "lat": 46.557844,
      "lon": 15.596415
    }
  },
  {
    "id": 124,
    "code": "165",
    "name": "Limbuška - rondo",
    "imageUrl": "",
    "routes": null,
    "departureTimes": null,
    "location": {
      "lat": 46.554951,
      "lon": 15.583604
    }
  },
  {
    "id": 127,
    "code": "157",
    "name": "Limbuš",
    "imageUrl": "",
    "routes": null,
    "departureTimes": null,
    "location": {
      "lat": 46.553985,
      "lon": 15.582052
    }
  },
  {
    "id": 128,
    "code": "159",
    "name": "Limbuš - pošta",
    "imageUrl": "",
    "routes": null,
    "departureTimes": null,
    "location": {
      "lat": 46.550618,
      "lon": 15.588177
    }
  },
  {
    "id": 129,
    "code": "160",
    "name": "Limbuš - pošta",
    "imageUrl": "",
    "routes": null,
    "departureTimes": null,
    "location": {
      "lat": 46.550618,
      "lon": 15.588177
    }
  },
  {
    "id": 130,
    "code": "248",
    "name": "Pekre",
    "imageUrl": "",
    "routes": null,
    "departureTimes": null,
    "location": {
      "lat": 46.547527,
      "lon": 15.593973
    }
  },
  {
    "id": 131,
    "code": "249",
    "name": "Pekre",
    "imageUrl": "",
    "routes": null,
    "departureTimes": null,
    "location": {
      "lat": 46.547527,
      "lon": 15.593973
    }
  },
  {
    "id": 132,
    "code": "74",
    "name": "Erjavčeva",
    "imageUrl": "",
    "routes": null,
    "departureTimes": null,
    "location": {
      "lat": 46.555365,
      "lon": 15.614664
    }
  },
  {
    "id": 133,
    "code": "75",
    "name": "Erjavčeva",
    "imageUrl": "",
    "routes": null,
    "departureTimes": null,
    "location": {
      "lat": 46.555365,
      "lon": 15.614664
    }
  },
  {
    "id": 135,
    "code": "77",
    "name": "Erjavčeva - ZD",
    "imageUrl": "",
    "routes": null,
    "departureTimes": null,
    "location": {
      "lat": 46.554633,
      "lon": 15.616999
    }
  },
  {
    "id": 136,
    "code": "335",
    "name": "Šarhova - pošta",
    "imageUrl": "",
    "routes": null,
    "departureTimes": null,
    "location": {
      "lat": 46.551581,
      "lon": 15.621506
    }
  },
  {
    "id": 137,
    "code": "336",
    "name": "Šarhova - pošta",
    "imageUrl": "",
    "routes": null,
    "departureTimes": null,
    "location": {
      "lat": 46.551581,
      "lon": 15.621506
    }
  },
  {
    "id": 138,
    "code": "334",
    "name": "Šarhova",
    "imageUrl": "",
    "routes": null,
    "departureTimes": null,
    "location": {
      "lat": 46.55322,
      "lon": 15.6173
    }
  },
  {
    "id": 139,
    "code": "126",
    "name": "Limbuška obvoznica",
    "imageUrl": "",
    "routes": null,
    "departureTimes": null,
    "location": {
      "lat": 46.555541,
      "lon": 15.604321
    }
  },
  {
    "id": 142,
    "code": "153",
    "name": "Lackova - Stara lipa",
    "imageUrl": "",
    "routes": null,
    "departureTimes": null,
    "location": {
      "lat": 46.538493,
      "lon": 15.611431
    }
  },
  {
    "id": 143,
    "code": "152",
    "name": "Lackova - Stara lipa",
    "imageUrl": "",
    "routes": null,
    "departureTimes": null,
    "location": {
      "lat": 46.538493,
      "lon": 15.611431
    }
  },
  {
    "id": 144,
    "code": "253",
    "name": "Pohorska - Mlada lipa",
    "imageUrl": "",
    "routes": null,
    "departureTimes": null,
    "location": {
      "lat": 46.539628,
      "lon": 15.605652
    }
  },
  {
    "id": 145,
    "code": "254",
    "name": "Pohorska - Mlada lipa",
    "imageUrl": "",
    "routes": null,
    "departureTimes": null,
    "location": {
      "lat": 46.539628,
      "lon": 15.605652
    }
  },
  {
    "id": 146,
    "code": "255",
    "name": "Pohorska - pošta",
    "imageUrl": "",
    "routes": null,
    "departureTimes": null,
    "location": {
      "lat": 46.537233,
      "lon": 15.603547
    }
  },
  {
    "id": 147,
    "code": "256",
    "name": "Pohorska - pošta",
    "imageUrl": "",
    "routes": null,
    "departureTimes": null,
    "location": {
      "lat": 46.537233,
      "lon": 15.603547
    }
  },
  {
    "id": 148,
    "code": "398",
    "name": "Vzpenjača",
    "imageUrl": "",
    "routes": null,
    "departureTimes": null,
    "location": {
      "lat": 46.533221,
      "lon": 15.599686
    }
  },
  {
    "id": 149,
    "code": "150",
    "name": "Lackova - Mlada lipa",
    "imageUrl": "",
    "routes": null,
    "departureTimes": null,
    "location": {
      "lat": 46.540938,
      "lon": 15.606056
    }
  },
  {
    "id": 150,
    "code": "151",
    "name": "Lackova - Na gorco",
    "imageUrl": "",
    "routes": null,
    "departureTimes": null,
    "location": {
      "lat": 46.545256,
      "lon": 15.60047
    }
  },
  {
    "id": 151,
    "code": "250",
    "name": "Pekre",
    "imageUrl": "",
    "routes": null,
    "departureTimes": null,
    "location": {
      "lat": 46.547527,
      "lon": 15.593973
    }
  },
  {
    "id": 152,
    "code": "17",
    "name": "Bezjakova",
    "imageUrl": "",
    "routes": null,
    "departureTimes": null,
    "location": {
      "lat": 46.5403683,
      "lon": 15.5894664
    }
  },
  {
    "id": 153,
    "code": "155",
    "name": "Lesjakova 1",
    "imageUrl": "",
    "routes": null,
    "departureTimes": null,
    "location": {
      "lat": 46.53841,
      "lon": 15.588516
    }
  },
  {
    "id": 154,
    "code": "156",
    "name": "Lesjakova 2",
    "imageUrl": "",
    "routes": null,
    "departureTimes": null,
    "location": {
      "lat": 46.537168,
      "lon": 15.59225
    }
  },
  {
    "id": 155,
    "code": "422",
    "name": "Zvezna ulica",
    "imageUrl": "",
    "routes": null,
    "departureTimes": null,
    "location": {
      "lat": 46.5360899,
      "lon": 15.5963853
    }
  },
  {
    "id": 156,
    "code": "229",
    "name": "Ob ribniku",
    "imageUrl": "",
    "routes": null,
    "departureTimes": null,
    "location": {
      "lat": 46.539139,
      "lon": 15.599502
    }
  },
  {
    "id": 157,
    "code": "326",
    "name": "Streliška - Ul. Poh. odr.",
    "imageUrl": "",
    "routes": null,
    "departureTimes": null,
    "location": {
      "lat": 46.536224,
      "lon": 15.620682
    }
  },
  {
    "id": 158,
    "code": "327",
    "name": "Streliška - Ul. Poh. odr.",
    "imageUrl": "",
    "routes": null,
    "departureTimes": null,
    "location": {
      "lat": 46.536224,
      "lon": 15.620682
    }
  },
  {
    "id": 159,
    "code": "242",
    "name": "OŠ Ludvika Pliberška",
    "imageUrl": "",
    "routes": null,
    "departureTimes": null,
    "location": {
      "lat": 46.537643,
      "lon": 15.620659
    }
  },
  {
    "id": 160,
    "code": "243",
    "name": "OŠ Ludvika Pliberška",
    "imageUrl": "",
    "routes": null,
    "departureTimes": null,
    "location": {
      "lat": 46.537643,
      "lon": 15.620659
    }
  },
  {
    "id": 161,
    "code": "240",
    "name": "Center Gustava Šiliha",
    "imageUrl": "",
    "routes": null,
    "departureTimes": null,
    "location": {
      "lat": 46.540432,
      "lon": 15.622139
    }
  },
  {
    "id": 162,
    "code": "241",
    "name": "Center Gustava Šiliha",
    "imageUrl": "",
    "routes": null,
    "departureTimes": null,
    "location": {
      "lat": 46.540432,
      "lon": 15.622139
    }
  },
  {
    "id": 163,
    "code": "223",
    "name": "Nova vas 2",
    "imageUrl": "",
    "routes": null,
    "departureTimes": null,
    "location": {
      "lat": 46.543812,
      "lon": 15.624338
    }
  },
  {
    "id": 164,
    "code": "224",
    "name": "Nova vas 2",
    "imageUrl": "",
    "routes": null,
    "departureTimes": null,
    "location": {
      "lat": 46.543812,
      "lon": 15.624338
    }
  },
  {
    "id": 165,
    "code": "282",
    "name": "Prol. brigad - vojašnica",
    "imageUrl": "",
    "routes": null,
    "departureTimes": null,
    "location": {
      "lat": 46.544607,
      "lon": 15.625679
    }
  },
  {
    "id": 166,
    "code": "283",
    "name": "Prol. brigad - vojašnica",
    "imageUrl": "",
    "routes": null,
    "departureTimes": null,
    "location": {
      "lat": 46.544607,
      "lon": 15.625679
    }
  },
  {
    "id": 167,
    "code": "297",
    "name": "Radvanjska - Borštnikova",
    "imageUrl": "",
    "routes": null,
    "departureTimes": null,
    "location": {
      "lat": 46.536279,
      "lon": 15.625321
    }
  },
  {
    "id": 168,
    "code": "298",
    "name": "Radvanjska - Borštnikova",
    "imageUrl": "",
    "routes": null,
    "departureTimes": null,
    "location": {
      "lat": 46.536279,
      "lon": 15.625321
    }
  },
  {
    "id": 169,
    "code": "295",
    "name": "Radvanjska - Antoličičeva",
    "imageUrl": "",
    "routes": null,
    "departureTimes": null,
    "location": {
      "lat": 46.538366,
      "lon": 15.627125
    }
  },
  {
    "id": 170,
    "code": "296",
    "name": "Radvanjska - Antoličičeva",
    "imageUrl": "",
    "routes": null,
    "departureTimes": null,
    "location": {
      "lat": 46.538366,
      "lon": 15.627125
    }
  },
  {
    "id": 171,
    "code": "299",
    "name": "Radvanjska - trgovina",
    "imageUrl": "",
    "routes": null,
    "departureTimes": null,
    "location": {
      "lat": 46.541651,
      "lon": 15.629961
    }
  },
  {
    "id": 172,
    "code": "300",
    "name": "Radvanjska - trgovina",
    "imageUrl": "",
    "routes": null,
    "departureTimes": null,
    "location": {
      "lat": 46.541651,
      "lon": 15.629961
    }
  },
  {
    "id": 173,
    "code": "116",
    "name": "Kardeljeva - Borštnikova",
    "imageUrl": "",
    "routes": null,
    "departureTimes": null,
    "location": {
      "lat": 46.534392,
      "lon": 15.630204
    }
  },
  {
    "id": 174,
    "code": "115",
    "name": "Kardeljeva - Borštnikova",
    "imageUrl": "",
    "routes": null,
    "departureTimes": null,
    "location": {
      "lat": 46.534392,
      "lon": 15.630204
    }
  },
  {
    "id": 175,
    "code": "246",
    "name": "OŠ Tabor I",
    "imageUrl": "",
    "routes": null,
    "departureTimes": null,
    "location": {
      "lat": 46.536681,
      "lon": 15.631055
    }
  },
  {
    "id": 176,
    "code": "247",
    "name": "OŠ Tabor I",
    "imageUrl": "",
    "routes": null,
    "departureTimes": null,
    "location": {
      "lat": 46.536681,
      "lon": 15.631055
    }
  },
  {
    "id": 177,
    "code": "119",
    "name": "Kardeljeva cesta 49",
    "imageUrl": "",
    "routes": null,
    "departureTimes": null,
    "location": {
      "lat": 46.543928,
      "lon": 15.634391
    }
  },
  {
    "id": 178,
    "code": "275",
    "name": "Prol. brigad - Kardeljeva",
    "imageUrl": "",
    "routes": null,
    "departureTimes": null,
    "location": {
      "lat": 46.542598,
      "lon": 15.634665
    }
  },
  {
    "id": 179,
    "code": "274",
    "name": "Prol. brigad - Kardeljeva",
    "imageUrl": "",
    "routes": null,
    "departureTimes": null,
    "location": {
      "lat": 46.542598,
      "lon": 15.634665
    }
  },
  {
    "id": 180,
    "code": "276",
    "name": "Prol. brigad - lekarna",
    "imageUrl": "",
    "routes": null,
    "departureTimes": null,
    "location": {
      "lat": 46.544323,
      "lon": 15.628793
    }
  },
  {
    "id": 181,
    "code": "277",
    "name": "Prol. brigad - lekarna",
    "imageUrl": "",
    "routes": null,
    "departureTimes": null,
    "location": {
      "lat": 46.544323,
      "lon": 15.628793
    }
  },
  {
    "id": 182,
    "code": "7",
    "name": "Betnavska - Goriška",
    "imageUrl": "",
    "routes": null,
    "departureTimes": null,
    "location": {
      "lat": 46.540358,
      "lon": 15.637294
    }
  },
  {
    "id": 183,
    "code": "8",
    "name": "Betnavska - Goriška",
    "imageUrl": "",
    "routes": null,
    "departureTimes": null,
    "location": {
      "lat": 46.540358,
      "lon": 15.637294
    }
  },
  {
    "id": 184,
    "code": "9",
    "name": "Betnavska - Knafelčeva",
    "imageUrl": "",
    "routes": null,
    "departureTimes": null,
    "location": {
      "lat": 46.537849,
      "lon": 15.635186
    }
  },
  {
    "id": 185,
    "code": "10",
    "name": "Betnavska - Knafelčeva",
    "imageUrl": "",
    "routes": null,
    "departureTimes": null,
    "location": {
      "lat": 46.537849,
      "lon": 15.635186
    }
  },
  {
    "id": 186,
    "code": "463",
    "name": "Lesjakova 1",
    "imageUrl": "",
    "routes": null,
    "departureTimes": null,
    "location": {
      "lat": 46.53841,
      "lon": 15.588516
    }
  },
  {
    "id": 188,
    "code": "117",
    "name": "Kardeljeva - Knafelčeva",
    "imageUrl": "",
    "routes": null,
    "departureTimes": null,
    "location": {
      "lat": 46.538949,
      "lon": 15.632643
    }
  },
  {
    "id": 189,
    "code": "118",
    "name": "Kardeljeva - Knafelčeva",
    "imageUrl": "",
    "routes": null,
    "departureTimes": null,
    "location": {
      "lat": 46.538949,
      "lon": 15.632643
    }
  },
  {
    "id": 190,
    "code": "177",
    "name": "Nova vas",
    "imageUrl": "",
    "routes": null,
    "departureTimes": null,
    "location": {
      "lat": 46.533502,
      "lon": 15.634789
    }
  },
  {
    "id": 192,
    "code": "172",
    "name": "Ljubljanska - stolpnica",
    "imageUrl": "",
    "routes": null,
    "departureTimes": null,
    "location": {
      "lat": 46.537296,
      "lon": 15.638018
    }
  },
  {
    "id": 193,
    "code": "173",
    "name": "Ljubljanska - stolpnica",
    "imageUrl": "",
    "routes": null,
    "departureTimes": null,
    "location": {
      "lat": 46.537296,
      "lon": 15.638018
    }
  },
  {
    "id": 194,
    "code": "174",
    "name": "Ljubljanska - TC Mercator",
    "imageUrl": "",
    "routes": null,
    "departureTimes": null,
    "location": {
      "lat": 46.540333,
      "lon": 15.639733
    }
  },
  {
    "id": 195,
    "code": "175",
    "name": "Ljubljanska - TC Mercator",
    "imageUrl": "",
    "routes": null,
    "departureTimes": null,
    "location": {
      "lat": 46.540333,
      "lon": 15.639733
    }
  },
  {
    "id": 196,
    "code": "278",
    "name": "Prol. brigad - Ljubljan.",
    "imageUrl": "",
    "routes": null,
    "departureTimes": null,
    "location": {
      "lat": 46.540904,
      "lon": 15.641137
    }
  },
  {
    "id": 197,
    "code": "279",
    "name": "Prol. brigad - Ljubljan.",
    "imageUrl": "",
    "routes": null,
    "departureTimes": null,
    "location": {
      "lat": 46.540904,
      "lon": 15.641137
    }
  },
  {
    "id": 198,
    "code": "212",
    "name": "Na Poljanah - Atletski stadion",
    "imageUrl": "",
    "routes": null,
    "departureTimes": null,
    "location": {
      "lat": 46.551892,
      "lon": 15.628447
    }
  },
  {
    "id": 199,
    "code": "213",
    "name": "Na Poljanah - Atletski stadion",
    "imageUrl": "",
    "routes": null,
    "departureTimes": null,
    "location": {
      "lat": 46.551892,
      "lon": 15.628447
    }
  },
  {
    "id": 200,
    "code": "70",
    "name": "Engelsova - Šarhova",
    "imageUrl": "",
    "routes": null,
    "departureTimes": null,
    "location": {
      "lat": 46.548919,
      "lon": 15.628775
    }
  },
  {
    "id": 201,
    "code": "71",
    "name": "Engelsova - Šarhova",
    "imageUrl": "",
    "routes": null,
    "departureTimes": null,
    "location": {
      "lat": 46.548919,
      "lon": 15.628775
    }
  },
  {
    "id": 203,
    "code": "72",
    "name": "Engelsova - vojašnica",
    "imageUrl": "",
    "routes": null,
    "departureTimes": null,
    "location": {
      "lat": 46.547295,
      "lon": 15.625758
    }
  },
  {
    "id": 204,
    "code": "73",
    "name": "Engelsova - vojašnica",
    "imageUrl": "",
    "routes": null,
    "departureTimes": null,
    "location": {
      "lat": 46.547295,
      "lon": 15.625758
    }
  },
  {
    "id": 205,
    "code": "301",
    "name": "Radvanjska - vojašnica",
    "imageUrl": "",
    "routes": null,
    "departureTimes": null,
    "location": {
      "lat": 46.546526,
      "lon": 15.635159
    }
  },
  {
    "id": 206,
    "code": "302",
    "name": "Radvanjska - vojašnica",
    "imageUrl": "",
    "routes": null,
    "departureTimes": null,
    "location": {
      "lat": 46.546526,
      "lon": 15.635159
    }
  },
  {
    "id": 207,
    "code": "67",
    "name": "Dvorana Tabor - Gorkega",
    "imageUrl": "",
    "routes": null,
    "departureTimes": null,
    "location": {
      "lat": 46.548779,
      "lon": 15.636555
    }
  },
  {
    "id": 208,
    "code": "68",
    "name": "Dvorana Tabor - Koresova",
    "imageUrl": "",
    "routes": null,
    "departureTimes": null,
    "location": {
      "lat": 46.549942,
      "lon": 15.636722
    }
  },
  {
    "id": 209,
    "code": "69",
    "name": "Dvorana Tabor - Koresova",
    "imageUrl": "",
    "routes": null,
    "departureTimes": null,
    "location": {
      "lat": 46.549942,
      "lon": 15.636722
    }
  },
  {
    "id": 210,
    "code": "86",
    "name": "Gorkega - Preradovičeva",
    "imageUrl": "",
    "routes": null,
    "departureTimes": null,
    "location": {
      "lat": 46.550584,
      "lon": 15.639119
    }
  },
  {
    "id": 211,
    "code": "87",
    "name": "Gorkega - Preradovičeva",
    "imageUrl": "",
    "routes": null,
    "departureTimes": null,
    "location": {
      "lat": 46.550584,
      "lon": 15.639119
    }
  },
  {
    "id": 212,
    "code": "11",
    "name": "Betnavska - Metelkova",
    "imageUrl": "",
    "routes": null,
    "departureTimes": null,
    "location": {
      "lat": 46.542351,
      "lon": 15.638437
    }
  },
  {
    "id": 213,
    "code": "12",
    "name": "Betnavska - Metelkova",
    "imageUrl": "",
    "routes": null,
    "departureTimes": null,
    "location": {
      "lat": 46.542351,
      "lon": 15.638437
    }
  },
  {
    "id": 214,
    "code": "5",
    "name": "Betnavska - Focheva",
    "imageUrl": "",
    "routes": null,
    "departureTimes": null,
    "location": {
      "lat": 46.546786,
      "lon": 15.639532
    }
  },
  {
    "id": 215,
    "code": "6",
    "name": "Betnavska - Focheva",
    "imageUrl": "",
    "routes": null,
    "departureTimes": null,
    "location": {
      "lat": 46.546786,
      "lon": 15.639532
    }
  },
  {
    "id": 216,
    "code": "13",
    "name": "OŠ Franceta Prešerna",
    "imageUrl": "",
    "routes": null,
    "departureTimes": null,
    "location": {
      "lat": 46.550335,
      "lon": 15.641006
    }
  },
  {
    "id": 217,
    "code": "14",
    "name": "OŠ Franceta Prešerna",
    "imageUrl": "",
    "routes": null,
    "departureTimes": null,
    "location": {
      "lat": 46.550335,
      "lon": 15.641006
    }
  },
  {
    "id": 218,
    "code": "244",
    "name": "OŠ Maksa Durjave",
    "imageUrl": "",
    "routes": null,
    "departureTimes": null,
    "location": {
      "lat": 46.553781,
      "lon": 15.639109
    }
  },
  {
    "id": 219,
    "code": "245",
    "name": "OŠ Maksa Durjave",
    "imageUrl": "",
    "routes": null,
    "departureTimes": null,
    "location": {
      "lat": 46.553781,
      "lon": 15.639109
    }
  },
  {
    "id": 220,
    "code": "425",
    "name": "ŽP Studenci",
    "imageUrl": "",
    "routes": null,
    "departureTimes": null,
    "location": {
      "lat": 46.554546,
      "lon": 15.635401
    }
  },
  {
    "id": 221,
    "code": "426",
    "name": "ŽP Studenci",
    "imageUrl": "",
    "routes": null,
    "departureTimes": null,
    "location": {
      "lat": 46.554546,
      "lon": 15.635401
    }
  },
  {
    "id": 222,
    "code": "391",
    "name": "OŠ Janka Padežnika",
    "imageUrl": "",
    "routes": null,
    "departureTimes": null,
    "location": {
      "lat": 46.556541,
      "lon": 15.628123
    }
  },
  {
    "id": 223,
    "code": "392",
    "name": "OŠ Janka Padežnika",
    "imageUrl": "",
    "routes": null,
    "departureTimes": null,
    "location": {
      "lat": 46.556541,
      "lon": 15.628123
    }
  },
  {
    "id": 224,
    "code": "389",
    "name": "Waldorfska šola",
    "imageUrl": "",
    "routes": null,
    "departureTimes": null,
    "location": {
      "lat": 46.555811,
      "lon": 15.631387
    }
  },
  {
    "id": 225,
    "code": "390",
    "name": "Waldorfska šola",
    "imageUrl": "",
    "routes": null,
    "departureTimes": null,
    "location": {
      "lat": 46.555811,
      "lon": 15.631387
    }
  },
  {
    "id": 226,
    "code": "347",
    "name": "UKC - Tabor",
    "imageUrl": "",
    "routes": null,
    "departureTimes": null,
    "location": {
      "lat": 46.553496,
      "lon": 15.644225
    }
  },
  {
    "id": 227,
    "code": "180",
    "name": "UKC - Pobreška",
    "imageUrl": "",
    "routes": null,
    "departureTimes": null,
    "location": {
      "lat": 46.554476,
      "lon": 15.647181
    }
  },
  {
    "id": 228,
    "code": "181",
    "name": "UKC - Pobreška",
    "imageUrl": "",
    "routes": null,
    "departureTimes": null,
    "location": {
      "lat": 46.554476,
      "lon": 15.647181
    }
  },
  {
    "id": 229,
    "code": "191",
    "name": "Maribor - UKC",
    "imageUrl": "",
    "routes": null,
    "departureTimes": null,
    "location": {
      "lat": 46.553028,
      "lon": 15.646453
    }
  },
  {
    "id": 230,
    "code": "182",
    "name": "UKC - Magdalenski park",
    "imageUrl": "",
    "routes": null,
    "departureTimes": null,
    "location": {
      "lat": 46.552755,
      "lon": 15.645782
    }
  },
  {
    "id": 231,
    "code": "170",
    "name": "Ljubljanska - II. gimn.",
    "imageUrl": "",
    "routes": null,
    "departureTimes": null,
    "location": {
      "lat": 46.549561,
      "lon": 15.645558
    }
  },
  {
    "id": 232,
    "code": "171",
    "name": "Ljubljanska - II. gimn.",
    "imageUrl": "",
    "routes": null,
    "departureTimes": null,
    "location": {
      "lat": 46.549561,
      "lon": 15.645558
    }
  },
  {
    "id": 233,
    "code": "168",
    "name": "Ljubljanska - Focheva",
    "imageUrl": "",
    "routes": null,
    "departureTimes": null,
    "location": {
      "lat": 46.545074,
      "lon": 15.643485
    }
  },
  {
    "id": 234,
    "code": "169",
    "name": "Ljubljanska - Focheva",
    "imageUrl": "",
    "routes": null,
    "departureTimes": null,
    "location": {
      "lat": 46.545074,
      "lon": 15.643485
    }
  },
  {
    "id": 235,
    "code": "273",
    "name": "Prol. brigad - Ferkova",
    "imageUrl": "",
    "routes": null,
    "departureTimes": null,
    "location": {
      "lat": 46.541641,
      "lon": 15.640899
    }
  },
  {
    "id": 236,
    "code": "355",
    "name": "Titova - Nasipna",
    "imageUrl": "",
    "routes": null,
    "departureTimes": null,
    "location": {
      "lat": 46.544594,
      "lon": 15.648782
    }
  },
  {
    "id": 237,
    "code": "356",
    "name": "Titova - Nasipna",
    "imageUrl": "",
    "routes": null,
    "departureTimes": null,
    "location": {
      "lat": 46.544594,
      "lon": 15.648782
    }
  },
  {
    "id": 238,
    "code": "367",
    "name": "Tržaška - Ptujska",
    "imageUrl": "",
    "routes": null,
    "departureTimes": null,
    "location": {
      "lat": 46.538819,
      "lon": 15.64702
    }
  },
  {
    "id": 242,
    "code": "382",
    "name": "Ul. Pariške komune",
    "imageUrl": "",
    "routes": null,
    "departureTimes": null,
    "location": {
      "lat": 46.548726,
      "lon": 15.641515
    }
  },
  {
    "id": 243,
    "code": "383",
    "name": "Ul. Pariške komune",
    "imageUrl": "",
    "routes": null,
    "departureTimes": null,
    "location": {
      "lat": 46.548726,
      "lon": 15.641515
    }
  },
  {
    "id": 244,
    "code": "281",
    "name": "Prol. brigad - Tržaška",
    "imageUrl": "",
    "routes": null,
    "departureTimes": null,
    "location": {
      "lat": 46.539799,
      "lon": 15.646367
    }
  },
  {
    "id": 245,
    "code": "15",
    "name": "Betnavski grad",
    "imageUrl": "",
    "routes": null,
    "departureTimes": null,
    "location": {
      "lat": 46.529503,
      "lon": 15.637461
    }
  },
  {
    "id": 246,
    "code": "16",
    "name": "Betnavski grad",
    "imageUrl": "",
    "routes": null,
    "departureTimes": null,
    "location": {
      "lat": 46.529503,
      "lon": 15.637461
    }
  },
  {
    "id": 247,
    "code": "307",
    "name": "Razvanje - vrtnarstvo",
    "imageUrl": "",
    "routes": null,
    "departureTimes": null,
    "location": {
      "lat": 46.521791,
      "lon": 15.635159
    }
  },
  {
    "id": 248,
    "code": "306",
    "name": "Razvanje - GD",
    "imageUrl": "",
    "routes": null,
    "departureTimes": null,
    "location": {
      "lat": 46.517971,
      "lon": 15.634457
    }
  },
  {
    "id": 249,
    "code": "305",
    "name": "Razvanje - GD",
    "imageUrl": "",
    "routes": null,
    "departureTimes": null,
    "location": {
      "lat": 46.517971,
      "lon": 15.634457
    }
  },
  {
    "id": 250,
    "code": "304",
    "name": "Razvanje",
    "imageUrl": "",
    "routes": null,
    "departureTimes": null,
    "location": {
      "lat": 46.515413,
      "lon": 15.6356531
    }
  },
  {
    "id": 254,
    "code": "348",
    "name": "E.Leclerc",
    "imageUrl": "",
    "routes": null,
    "departureTimes": null,
    "location": {
      "lat": 46.521225,
      "lon": 15.651598
    }
  },
  {
    "id": 255,
    "code": "372",
    "name": "Tržaška cesta - Rutar",
    "imageUrl": "",
    "routes": null,
    "departureTimes": null,
    "location": {
      "lat": 46.521465,
      "lon": 15.648956
    }
  },
  {
    "id": 258,
    "code": "365",
    "name": "Tržaška cesta - carinarnica",
    "imageUrl": "",
    "routes": null,
    "departureTimes": null,
    "location": {
      "lat": 46.526525,
      "lon": 15.648251
    }
  },
  {
    "id": 259,
    "code": "366",
    "name": "Tržaška cesta - carinarnica",
    "imageUrl": "",
    "routes": null,
    "departureTimes": null,
    "location": {
      "lat": 46.526525,
      "lon": 15.648251
    }
  },
  {
    "id": 260,
    "code": "370",
    "name": "Tržaška cesta - Lesnina",
    "imageUrl": "",
    "routes": null,
    "departureTimes": null,
    "location": {
      "lat": 46.530925,
      "lon": 15.645941
    }
  },
  {
    "id": 261,
    "code": "371",
    "name": "Tržaška cesta - Lesnina",
    "imageUrl": "",
    "routes": null,
    "departureTimes": null,
    "location": {
      "lat": 46.530925,
      "lon": 15.645941
    }
  },
  {
    "id": 262,
    "code": "251",
    "name": "Pobreška - Europark",
    "imageUrl": "",
    "routes": null,
    "departureTimes": null,
    "location": {
      "lat": 46.554732,
      "lon": 15.653071
    }
  },
  {
    "id": 263,
    "code": "252",
    "name": "Pobreška - Europark",
    "imageUrl": "",
    "routes": null,
    "departureTimes": null,
    "location": {
      "lat": 46.554732,
      "lon": 15.653071
    }
  },
  {
    "id": 265,
    "code": "203",
    "name": "Meljski hrib - most",
    "imageUrl": "",
    "routes": null,
    "departureTimes": null,
    "location": {
      "lat": 46.558068,
      "lon": 15.682489
    }
  },
  {
    "id": 266,
    "code": "204",
    "name": "Meljski hrib - most",
    "imageUrl": "",
    "routes": null,
    "departureTimes": null,
    "location": {
      "lat": 46.558068,
      "lon": 15.682489
    }
  },
  {
    "id": 267,
    "code": "139",
    "name": "Kovačič",
    "imageUrl": "",
    "routes": null,
    "departureTimes": null,
    "location": {
      "lat": 46.556431,
      "lon": 15.691654
    }
  },
  {
    "id": 268,
    "code": "140",
    "name": "Kovačič",
    "imageUrl": "",
    "routes": null,
    "departureTimes": null,
    "location": {
      "lat": 46.556431,
      "lon": 15.691654
    }
  },
  {
    "id": 270,
    "code": "178",
    "name": "Malečnik",
    "imageUrl": "",
    "routes": null,
    "departureTimes": null,
    "location": {
      "lat": 46.555402,
      "lon": 15.696661
    }
  },
  {
    "id": 271,
    "code": "179",
    "name": "Malečnik",
    "imageUrl": "",
    "routes": null,
    "departureTimes": null,
    "location": {
      "lat": 46.555402,
      "lon": 15.696661
    }
  },
  {
    "id": 272,
    "code": "186",
    "name": "Malečnik - odcep Trčova",
    "imageUrl": "",
    "routes": null,
    "departureTimes": null,
    "location": {
      "lat": 46.552997,
      "lon": 15.705808
    }
  },
  {
    "id": 273,
    "code": "187",
    "name": "Malečnik - odcep Trčova",
    "imageUrl": "",
    "routes": null,
    "departureTimes": null,
    "location": {
      "lat": 46.552997,
      "lon": 15.705808
    }
  },
  {
    "id": 274,
    "code": "27",
    "name": "Celestrina",
    "imageUrl": "",
    "routes": null,
    "departureTimes": null,
    "location": {
      "lat": 46.556035,
      "lon": 15.711244
    }
  },
  {
    "id": 275,
    "code": "28",
    "name": "Celestrina",
    "imageUrl": "",
    "routes": null,
    "departureTimes": null,
    "location": {
      "lat": 46.556035,
      "lon": 15.711244
    }
  },
  {
    "id": 276,
    "code": "219",
    "name": "Nebova I",
    "imageUrl": "",
    "routes": null,
    "departureTimes": null,
    "location": {
      "lat": 46.557287,
      "lon": 15.719664
    }
  },
  {
    "id": 277,
    "code": "220",
    "name": "Nebova I",
    "imageUrl": "",
    "routes": null,
    "departureTimes": null,
    "location": {
      "lat": 46.557287,
      "lon": 15.719664
    }
  },
  {
    "id": 278,
    "code": "221",
    "name": "Nebova II",
    "imageUrl": "",
    "routes": null,
    "departureTimes": null,
    "location": {
      "lat": 46.557634,
      "lon": 15.724085
    }
  },
  {
    "id": 279,
    "code": "222",
    "name": "Nebova II",
    "imageUrl": "",
    "routes": null,
    "departureTimes": null,
    "location": {
      "lat": 46.557634,
      "lon": 15.724085
    }
  },
  {
    "id": 280,
    "code": "188",
    "name": "Malečnik - odcep Trčova",
    "imageUrl": "",
    "routes": null,
    "departureTimes": null,
    "location": {
      "lat": 46.552997,
      "lon": 15.705808
    }
  },
  {
    "id": 282,
    "code": "317",
    "name": "Ruperče",
    "imageUrl": "",
    "routes": null,
    "departureTimes": null,
    "location": {
      "lat": 46.560761,
      "lon": 15.729293
    }
  },
  {
    "id": 283,
    "code": "318",
    "name": "Ruperče",
    "imageUrl": "",
    "routes": null,
    "departureTimes": null,
    "location": {
      "lat": 46.560761,
      "lon": 15.729293
    }
  },
  {
    "id": 284,
    "code": "145",
    "name": "Kronaveter",
    "imageUrl": "",
    "routes": null,
    "departureTimes": null,
    "location": {
      "lat": 46.556547,
      "lon": 15.733096
    }
  },
  {
    "id": 285,
    "code": "124",
    "name": "Knezar",
    "imageUrl": "",
    "routes": null,
    "departureTimes": null,
    "location": {
      "lat": 46.554546,
      "lon": 15.736294
    }
  },
  {
    "id": 286,
    "code": "208",
    "name": "Metava - odcep",
    "imageUrl": "",
    "routes": null,
    "departureTimes": null,
    "location": {
      "lat": 46.550119,
      "lon": 15.740569
    }
  },
  {
    "id": 287,
    "code": "404",
    "name": "Zimica - odcep",
    "imageUrl": "",
    "routes": null,
    "departureTimes": null,
    "location": {
      "lat": 46.551379,
      "lon": 15.743682
    }
  },
  {
    "id": 288,
    "code": "101",
    "name": "Grušova 1",
    "imageUrl": "",
    "routes": null,
    "departureTimes": null,
    "location": {
      "lat": 46.557053,
      "lon": 15.745686
    }
  },
  {
    "id": 289,
    "code": "102",
    "name": "Grušova 1",
    "imageUrl": "",
    "routes": null,
    "departureTimes": null,
    "location": {
      "lat": 46.557053,
      "lon": 15.745686
    }
  },
  {
    "id": 290,
    "code": "100",
    "name": "Grušova",
    "imageUrl": "",
    "routes": null,
    "departureTimes": null,
    "location": {
      "lat": 46.559594,
      "lon": 15.747312
    }
  },
  {
    "id": 291,
    "code": "189",
    "name": "Malečnik - trgovina",
    "imageUrl": "",
    "routes": null,
    "departureTimes": null,
    "location": {
      "lat": 46.552497,
      "lon": 15.708171
    }
  },
  {
    "id": 292,
    "code": "362",
    "name": "Trčova 31",
    "imageUrl": "",
    "routes": null,
    "departureTimes": null,
    "location": {
      "lat": 46.547793,
      "lon": 15.714933
    }
  },
  {
    "id": 293,
    "code": "363",
    "name": "Trčova 31",
    "imageUrl": "",
    "routes": null,
    "departureTimes": null,
    "location": {
      "lat": 46.547793,
      "lon": 15.714933
    }
  },
  {
    "id": 294,
    "code": "360",
    "name": "Trčova - Griček",
    "imageUrl": "",
    "routes": null,
    "departureTimes": null,
    "location": {
      "lat": 46.539504,
      "lon": 15.720569
    }
  },
  {
    "id": 295,
    "code": "225",
    "name": "Novak",
    "imageUrl": "",
    "routes": null,
    "departureTimes": null,
    "location": {
      "lat": 46.537569,
      "lon": 15.724293
    }
  },
  {
    "id": 296,
    "code": "206",
    "name": "Metava - Duplek križišče",
    "imageUrl": "",
    "routes": null,
    "departureTimes": null,
    "location": {
      "lat": 46.534931,
      "lon": 15.731634
    }
  },
  {
    "id": 297,
    "code": "205",
    "name": "Metava",
    "imageUrl": "",
    "routes": null,
    "departureTimes": null,
    "location": {
      "lat": 46.539722,
      "lon": 15.732907
    }
  },
  {
    "id": 298,
    "code": "96",
    "name": "Greenwich",
    "imageUrl": "",
    "routes": null,
    "departureTimes": null,
    "location": {
      "lat": 46.554659,
      "lon": 15.659808
    }
  },
  {
    "id": 299,
    "code": "97",
    "name": "Greenwich",
    "imageUrl": "",
    "routes": null,
    "departureTimes": null,
    "location": {
      "lat": 46.554659,
      "lon": 15.659808
    }
  },
  {
    "id": 300,
    "code": "218",
    "name": "Nasipna - Snaga",
    "imageUrl": "",
    "routes": null,
    "departureTimes": null,
    "location": {
      "lat": 46.550584,
      "lon": 15.656246
    }
  },
  {
    "id": 301,
    "code": "217",
    "name": "Nasipna - Snaga",
    "imageUrl": "",
    "routes": null,
    "departureTimes": null,
    "location": {
      "lat": 46.550584,
      "lon": 15.656246
    }
  },
  {
    "id": 302,
    "code": "3",
    "name": "Stražun",
    "imageUrl": "",
    "routes": null,
    "departureTimes": null,
    "location": {
      "lat": 46.542928,
      "lon": 15.654167
    }
  },
  {
    "id": 303,
    "code": "227",
    "name": "OŠ borcev za severno mejo",
    "imageUrl": "",
    "routes": null,
    "departureTimes": null,
    "location": {
      "lat": 46.547051,
      "lon": 15.656968
    }
  },
  {
    "id": 304,
    "code": "228",
    "name": "OŠ borcev za severno mejo",
    "imageUrl": "",
    "routes": null,
    "departureTimes": null,
    "location": {
      "lat": 46.547051,
      "lon": 15.656968
    }
  },
  {
    "id": 305,
    "code": "388",
    "name": "Ulica heroja Vojka",
    "imageUrl": "",
    "routes": null,
    "departureTimes": null,
    "location": {
      "lat": 46.544808,
      "lon": 15.653853
    }
  },
  {
    "id": 306,
    "code": "216",
    "name": "Nasipna - Cizerl",
    "imageUrl": "",
    "routes": null,
    "departureTimes": null,
    "location": {
      "lat": 46.545437,
      "lon": 15.652773
    }
  },
  {
    "id": 307,
    "code": "37",
    "name": "Črnogorska ul. 23",
    "imageUrl": "",
    "routes": null,
    "departureTimes": null,
    "location": {
      "lat": 46.545675,
      "lon": 15.656455
    }
  },
  {
    "id": 308,
    "code": "184",
    "name": "Makedonska",
    "imageUrl": "",
    "routes": null,
    "departureTimes": null,
    "location": {
      "lat": 46.542353,
      "lon": 15.657277
    }
  },
  {
    "id": 309,
    "code": "2",
    "name": "Stražun",
    "imageUrl": "",
    "routes": null,
    "departureTimes": null,
    "location": {
      "lat": 46.542928,
      "lon": 15.654167
    }
  },
  {
    "id": 310,
    "code": "427",
    "name": "ŽP Tezno",
    "imageUrl": "",
    "routes": null,
    "departureTimes": null,
    "location": {
      "lat": 46.539447,
      "lon": 15.651313
    }
  },
  {
    "id": 311,
    "code": "428",
    "name": "ŽP Tezno",
    "imageUrl": "",
    "routes": null,
    "departureTimes": null,
    "location": {
      "lat": 46.539447,
      "lon": 15.651313
    }
  },
  {
    "id": 312,
    "code": "401",
    "name": "Zagrebška - Kovinar",
    "imageUrl": "",
    "routes": null,
    "departureTimes": null,
    "location": {
      "lat": 46.534721,
      "lon": 15.658095
    }
  },
  {
    "id": 313,
    "code": "402",
    "name": "Zagrebška - Kovinar",
    "imageUrl": "",
    "routes": null,
    "departureTimes": null,
    "location": {
      "lat": 46.534721,
      "lon": 15.658095
    }
  },
  {
    "id": 314,
    "code": "399",
    "name": "Zagrebška - CSD",
    "imageUrl": "",
    "routes": null,
    "departureTimes": null,
    "location": {
      "lat": 46.531271,
      "lon": 15.665202
    }
  },
  {
    "id": 315,
    "code": "400",
    "name": "Zagrebška - CSD",
    "imageUrl": "",
    "routes": null,
    "departureTimes": null,
    "location": {
      "lat": 46.531271,
      "lon": 15.665202
    }
  },
  {
    "id": 316,
    "code": "120",
    "name": "Kavčičeva",
    "imageUrl": "",
    "routes": null,
    "departureTimes": null,
    "location": {
      "lat": 46.527143,
      "lon": 15.672036
    }
  },
  {
    "id": 317,
    "code": "121",
    "name": "Kavčičeva",
    "imageUrl": "",
    "routes": null,
    "departureTimes": null,
    "location": {
      "lat": 46.527143,
      "lon": 15.672036
    }
  },
  {
    "id": 318,
    "code": "406",
    "name": "Zolajeva - TŠC",
    "imageUrl": "",
    "routes": null,
    "departureTimes": null,
    "location": {
      "lat": 46.5259,
      "lon": 15.670344
    }
  },
  {
    "id": 320,
    "code": "264",
    "name": "Poštni center",
    "imageUrl": "",
    "routes": null,
    "departureTimes": null,
    "location": {
      "lat": 46.521946,
      "lon": 15.671974
    }
  },
  {
    "id": 321,
    "code": "294",
    "name": "Ptujska - Tržaška",
    "imageUrl": "",
    "routes": null,
    "departureTimes": null,
    "location": {
      "lat": 46.539701,
      "lon": 15.648591
    }
  },
  {
    "id": 322,
    "code": "286",
    "name": "Ptujska - hitra cesta",
    "imageUrl": "",
    "routes": null,
    "departureTimes": null,
    "location": {
      "lat": 46.539627,
      "lon": 15.654032
    }
  },
  {
    "id": 323,
    "code": "288",
    "name": "Ptujska - Kovinar",
    "imageUrl": "",
    "routes": null,
    "departureTimes": null,
    "location": {
      "lat": 46.536927,
      "lon": 15.658624
    }
  },
  {
    "id": 324,
    "code": "284",
    "name": "Ptujska - Špelina",
    "imageUrl": "",
    "routes": null,
    "departureTimes": null,
    "location": {
      "lat": 46.533447,
      "lon": 15.665435
    }
  },
  {
    "id": 325,
    "code": "290",
    "name": "Ptujska - pošta",
    "imageUrl": "",
    "routes": null,
    "departureTimes": null,
    "location": {
      "lat": 46.531681,
      "lon": 15.668748
    }
  },
  {
    "id": 326,
    "code": "292",
    "name": "Ptujska - Cona Tezno",
    "imageUrl": "",
    "routes": null,
    "departureTimes": null,
    "location": {
      "lat": 46.529611,
      "lon": 15.671695
    }
  },
  {
    "id": 329,
    "code": "257",
    "name": "Karantanska",
    "imageUrl": "",
    "routes": null,
    "departureTimes": null,
    "location": {
      "lat": 46.518383,
      "lon": 15.686697
    }
  },
  {
    "id": 331,
    "code": "293",
    "name": "Ptujska - Cona Tezno",
    "imageUrl": "",
    "routes": null,
    "departureTimes": null,
    "location": {
      "lat": 46.529611,
      "lon": 15.671695
    }
  },
  {
    "id": 332,
    "code": "291",
    "name": "Ptujska - pošta",
    "imageUrl": "",
    "routes": null,
    "departureTimes": null,
    "location": {
      "lat": 46.531681,
      "lon": 15.668748
    }
  },
  {
    "id": 333,
    "code": "285",
    "name": "Ptujska - Špelina",
    "imageUrl": "",
    "routes": null,
    "departureTimes": null,
    "location": {
      "lat": 46.533447,
      "lon": 15.665435
    }
  },
  {
    "id": 334,
    "code": "289",
    "name": "Ptujska - Kovinar",
    "imageUrl": "",
    "routes": null,
    "departureTimes": null,
    "location": {
      "lat": 46.536927,
      "lon": 15.658624
    }
  },
  {
    "id": 335,
    "code": "287",
    "name": "Ptujska - hitra cesta",
    "imageUrl": "",
    "routes": null,
    "departureTimes": null,
    "location": {
      "lat": 46.539627,
      "lon": 15.654032
    }
  },
  {
    "id": 336,
    "code": "353",
    "name": "Tezno - dom st. občanov",
    "imageUrl": "",
    "routes": null,
    "departureTimes": null,
    "location": {
      "lat": 46.525041,
      "lon": 15.678189
    }
  },
  {
    "id": 337,
    "code": "354",
    "name": "Tezno - dom st. občanov",
    "imageUrl": "",
    "routes": null,
    "departureTimes": null,
    "location": {
      "lat": 46.525041,
      "lon": 15.678189
    }
  },
  {
    "id": 338,
    "code": "260",
    "name": "Pokop. Dobrava - vhod",
    "imageUrl": "",
    "routes": null,
    "departureTimes": null,
    "location": {
      "lat": 46.519089,
      "lon": 15.692238
    }
  },
  {
    "id": 339,
    "code": "259",
    "name": "Pokop. Dobrava - vhod",
    "imageUrl": "",
    "routes": null,
    "departureTimes": null,
    "location": {
      "lat": 46.519089,
      "lon": 15.692238
    }
  },
  {
    "id": 340,
    "code": "261",
    "name": "Pokopališče Dobrava",
    "imageUrl": "",
    "routes": null,
    "departureTimes": null,
    "location": {
      "lat": 46.519569,
      "lon": 15.696044
    }
  },
  {
    "id": 341,
    "code": "258",
    "name": "Karantanska",
    "imageUrl": "",
    "routes": null,
    "departureTimes": null,
    "location": {
      "lat": 46.518383,
      "lon": 15.686697
    }
  },
  {
    "id": 342,
    "code": "59",
    "name": "Dupleška - kanal",
    "imageUrl": "",
    "routes": null,
    "departureTimes": null,
    "location": {
      "lat": 46.526891,
      "lon": 15.700068
    }
  },
  {
    "id": 343,
    "code": "60",
    "name": "Dupleška - kanal",
    "imageUrl": "",
    "routes": null,
    "departureTimes": null,
    "location": {
      "lat": 46.526891,
      "lon": 15.700068
    }
  },
  {
    "id": 344,
    "code": "61",
    "name": "Dupleška - kanal",
    "imageUrl": "",
    "routes": null,
    "departureTimes": null,
    "location": {
      "lat": 46.526891,
      "lon": 15.700068
    }
  },
  {
    "id": 345,
    "code": "44",
    "name": "Dogoše - Gasilski dom",
    "imageUrl": "",
    "routes": null,
    "departureTimes": null,
    "location": {
      "lat": 46.523742,
      "lon": 15.703949
    }
  },
  {
    "id": 346,
    "code": "45",
    "name": "Dogoše - Gasilski dom",
    "imageUrl": "",
    "routes": null,
    "departureTimes": null,
    "location": {
      "lat": 46.523742,
      "lon": 15.703949
    }
  },
  {
    "id": 347,
    "code": "64",
    "name": "Dupleška cesta 239",
    "imageUrl": "",
    "routes": null,
    "departureTimes": null,
    "location": {
      "lat": 46.523932,
      "lon": 15.704634
    }
  },
  {
    "id": 348,
    "code": "65",
    "name": "Dupleška cesta 245",
    "imageUrl": "",
    "routes": null,
    "departureTimes": null,
    "location": {
      "lat": 46.523413,
      "lon": 15.705232
    }
  },
  {
    "id": 349,
    "code": "66",
    "name": "Dogoše",
    "imageUrl": "",
    "routes": null,
    "departureTimes": null,
    "location": {
      "lat": 46.521559,
      "lon": 15.705513
    }
  },
  {
    "id": 350,
    "code": "46",
    "name": "Dogoše - polje",
    "imageUrl": "",
    "routes": null,
    "departureTimes": null,
    "location": {
      "lat": 46.516745,
      "lon": 15.709547
    }
  },
  {
    "id": 351,
    "code": "47",
    "name": "Dogoše - polje",
    "imageUrl": "",
    "routes": null,
    "departureTimes": null,
    "location": {
      "lat": 46.516745,
      "lon": 15.709547
    }
  },
  {
    "id": 352,
    "code": "43",
    "name": "Dogoše - obračališče",
    "imageUrl": "",
    "routes": null,
    "departureTimes": null,
    "location": {
      "lat": 46.51468,
      "lon": 15.712493
    }
  },
  {
    "id": 353,
    "code": "403",
    "name": "Zg. Duplek",
    "imageUrl": "",
    "routes": null,
    "departureTimes": null,
    "location": {
      "lat": 46.515357,
      "lon": 15.717538
    }
  },
  {
    "id": 354,
    "code": "332",
    "name": "Svenškova ulica 40",
    "imageUrl": "",
    "routes": null,
    "departureTimes": null,
    "location": {
      "lat": 46.528356,
      "lon": 15.706277
    }
  },
  {
    "id": 355,
    "code": "333",
    "name": "Svenškova ulica 40",
    "imageUrl": "",
    "routes": null,
    "departureTimes": null,
    "location": {
      "lat": 46.528356,
      "lon": 15.706277
    }
  },
  {
    "id": 356,
    "code": "57",
    "name": "Dupleška - Jarčeva",
    "imageUrl": "",
    "routes": null,
    "departureTimes": null,
    "location": {
      "lat": 46.532254,
      "lon": 15.694671
    }
  },
  {
    "id": 357,
    "code": "58",
    "name": "Dupleška - Jarčeva",
    "imageUrl": "",
    "routes": null,
    "departureTimes": null,
    "location": {
      "lat": 46.532254,
      "lon": 15.694671
    }
  },
  {
    "id": 358,
    "code": "25",
    "name": "Brezje",
    "imageUrl": "",
    "routes": null,
    "departureTimes": null,
    "location": {
      "lat": 46.536515,
      "lon": 15.688387
    }
  },
  {
    "id": 359,
    "code": "26",
    "name": "Brezje",
    "imageUrl": "",
    "routes": null,
    "departureTimes": null,
    "location": {
      "lat": 46.536515,
      "lon": 15.688387
    }
  },
  {
    "id": 360,
    "code": "62",
    "name": "Dupleška - Tezenska",
    "imageUrl": "",
    "routes": null,
    "departureTimes": null,
    "location": {
      "lat": 46.541218,
      "lon": 15.683419
    }
  },
  {
    "id": 361,
    "code": "63",
    "name": "Dupleška - Tezenska",
    "imageUrl": "",
    "routes": null,
    "departureTimes": null,
    "location": {
      "lat": 46.541218,
      "lon": 15.683419
    }
  },
  {
    "id": 362,
    "code": "33",
    "name": "Cesta XIV. divizije",
    "imageUrl": "",
    "routes": null,
    "departureTimes": null,
    "location": {
      "lat": 46.544875,
      "lon": 15.676494
    }
  },
  {
    "id": 363,
    "code": "34",
    "name": "Cesta XIV. divizije",
    "imageUrl": "",
    "routes": null,
    "departureTimes": null,
    "location": {
      "lat": 46.544875,
      "lon": 15.676494
    }
  },
  {
    "id": 364,
    "code": "238",
    "name": "OŠ Draga Kobala",
    "imageUrl": "",
    "routes": null,
    "departureTimes": null,
    "location": {
      "lat": 46.546369,
      "lon": 15.672098
    }
  },
  {
    "id": 365,
    "code": "239",
    "name": "OŠ Draga Kobala",
    "imageUrl": "",
    "routes": null,
    "departureTimes": null,
    "location": {
      "lat": 46.546369,
      "lon": 15.672098
    }
  },
  {
    "id": 366,
    "code": "262",
    "name": "Pokopališče Pobrežje",
    "imageUrl": "",
    "routes": null,
    "departureTimes": null,
    "location": {
      "lat": 46.550902,
      "lon": 15.664378
    }
  },
  {
    "id": 367,
    "code": "263",
    "name": "Pokopališče Pobrežje",
    "imageUrl": "",
    "routes": null,
    "departureTimes": null,
    "location": {
      "lat": 46.550902,
      "lon": 15.664378
    }
  },
  {
    "id": 368,
    "code": "235",
    "name": "Osojnikova",
    "imageUrl": "",
    "routes": null,
    "departureTimes": null,
    "location": {
      "lat": 46.551776,
      "lon": 15.664403
    }
  },
  {
    "id": 369,
    "code": "236",
    "name": "Osojnikova - TVD Partizan",
    "imageUrl": "",
    "routes": null,
    "departureTimes": null,
    "location": {
      "lat": 46.554105,
      "lon": 15.665806
    }
  },
  {
    "id": 370,
    "code": "41",
    "name": "Čufarjeva - TVD Partizan",
    "imageUrl": "",
    "routes": null,
    "departureTimes": null,
    "location": {
      "lat": 46.554756,
      "lon": 15.666739
    }
  },
  {
    "id": 371,
    "code": "42",
    "name": "Čufarjeva - TVD Partizan",
    "imageUrl": "",
    "routes": null,
    "departureTimes": null,
    "location": {
      "lat": 46.554756,
      "lon": 15.666739
    }
  },
  {
    "id": 372,
    "code": "39",
    "name": "Čufarjeva - dom st. obč.",
    "imageUrl": "",
    "routes": null,
    "departureTimes": null,
    "location": {
      "lat": 46.554516,
      "lon": 15.673517
    }
  },
  {
    "id": 373,
    "code": "40",
    "name": "Čufarjeva - dom st. obč.",
    "imageUrl": "",
    "routes": null,
    "departureTimes": null,
    "location": {
      "lat": 46.554516,
      "lon": 15.673517
    }
  },
  {
    "id": 374,
    "code": "384",
    "name": "Ul. V. Vlahovića - S31",
    "imageUrl": "",
    "routes": null,
    "departureTimes": null,
    "location": {
      "lat": 46.550802,
      "lon": 15.676429
    }
  },
  {
    "id": 375,
    "code": "385",
    "name": "Ul. V. Vlahovića - S31",
    "imageUrl": "",
    "routes": null,
    "departureTimes": null,
    "location": {
      "lat": 46.550802,
      "lon": 15.676429
    }
  },
  {
    "id": 376,
    "code": "386",
    "name": "Novo Pobrežje",
    "imageUrl": "",
    "routes": null,
    "departureTimes": null,
    "location": {
      "lat": 46.547605,
      "lon": 15.674821
    }
  },
  {
    "id": 377,
    "code": "387",
    "name": "Novo Pobrežje",
    "imageUrl": "",
    "routes": null,
    "departureTimes": null,
    "location": {
      "lat": 46.547605,
      "lon": 15.674821
    }
  },
  {
    "id": 378,
    "code": "409",
    "name": "Zrkovska - Gasilski dom",
    "imageUrl": "",
    "routes": null,
    "departureTimes": null,
    "location": {
      "lat": 46.554349,
      "lon": 15.676661
    }
  },
  {
    "id": 379,
    "code": "420",
    "name": "Zrkovska cesta",
    "imageUrl": "",
    "routes": null,
    "departureTimes": null,
    "location": {
      "lat": 46.552228,
      "lon": 15.682309
    }
  },
  {
    "id": 380,
    "code": "416",
    "name": "Zrkovska - Na terasi",
    "imageUrl": "",
    "routes": null,
    "departureTimes": null,
    "location": {
      "lat": 46.549674,
      "lon": 15.694727
    }
  },
  {
    "id": 381,
    "code": "417",
    "name": "Zrkovska - Na terasi",
    "imageUrl": "",
    "routes": null,
    "departureTimes": null,
    "location": {
      "lat": 46.549674,
      "lon": 15.694727
    }
  },
  {
    "id": 382,
    "code": "408",
    "name": "Zrkovci",
    "imageUrl": "",
    "routes": null,
    "departureTimes": null,
    "location": {
      "lat": 46.549582,
      "lon": 15.700092
    }
  },
  {
    "id": 383,
    "code": "412",
    "name": "Zrkovci - Na Gorci 54",
    "imageUrl": "",
    "routes": null,
    "departureTimes": null,
    "location": {
      "lat": 46.546532,
      "lon": 15.705432
    }
  },
  {
    "id": 384,
    "code": "415",
    "name": "Zrkovci - Na Gorci 65",
    "imageUrl": "",
    "routes": null,
    "departureTimes": null,
    "location": {
      "lat": 46.544222,
      "lon": 15.706825
    }
  },
  {
    "id": 388,
    "code": "49",
    "name": "Dogoška - vrtec",
    "imageUrl": "",
    "routes": null,
    "departureTimes": null,
    "location": {
      "lat": 46.528314,
      "lon": 15.675737
    }
  },
  {
    "id": 389,
    "code": "48",
    "name": "Dogoška - vrtec",
    "imageUrl": "",
    "routes": null,
    "departureTimes": null,
    "location": {
      "lat": 46.528314,
      "lon": 15.675737
    }
  },
  {
    "id": 390,
    "code": "147",
    "name": "MČ Tezno",
    "imageUrl": "",
    "routes": null,
    "departureTimes": null,
    "location": {
      "lat": 46.527886,
      "lon": 15.681957
    }
  },
  {
    "id": 391,
    "code": "148",
    "name": "MČ Tezno",
    "imageUrl": "",
    "routes": null,
    "departureTimes": null,
    "location": {
      "lat": 46.527886,
      "lon": 15.681957
    }
  },
  {
    "id": 392,
    "code": "149",
    "name": "MČ Tezno",
    "imageUrl": "",
    "routes": null,
    "departureTimes": null,
    "location": {
      "lat": 46.527886,
      "lon": 15.681957
    }
  },
  {
    "id": 393,
    "code": "352",
    "name": "Tezenska Dobrava",
    "imageUrl": "",
    "routes": null,
    "departureTimes": null,
    "location": {
      "lat": 46.526839,
      "lon": 15.687001
    }
  },
  {
    "id": 402,
    "code": "265",
    "name": "Cona Tezno - črpalka",
    "imageUrl": "",
    "routes": null,
    "departureTimes": null,
    "location": {
      "lat": 46.524641,
      "lon": 15.667625
    }
  },
  {
    "id": 403,
    "code": "269",
    "name": "Cona Tezno - OTP",
    "imageUrl": "",
    "routes": null,
    "departureTimes": null,
    "location": {
      "lat": 46.521951,
      "lon": 15.66984
    }
  },
  {
    "id": 404,
    "code": "270",
    "name": "Cona Tezno - OTP",
    "imageUrl": "",
    "routes": null,
    "departureTimes": null,
    "location": {
      "lat": 46.521951,
      "lon": 15.66984
    }
  },
  {
    "id": 405,
    "code": "266",
    "name": "Cona Tezno - črpalka",
    "imageUrl": "",
    "routes": null,
    "departureTimes": null,
    "location": {
      "lat": 46.524641,
      "lon": 15.667625
    }
  },
  {
    "id": 408,
    "code": "322",
    "name": "Smetanova - Teh. fakul.",
    "imageUrl": "",
    "routes": null,
    "departureTimes": null,
    "location": {
      "lat": 46.559391,
      "lon": 15.640427
    }
  },
  {
    "id": 409,
    "code": "127",
    "name": "Koroška - Pristan",
    "imageUrl": "",
    "routes": null,
    "departureTimes": null,
    "location": {
      "lat": 46.558804,
      "lon": 15.637914
    }
  },
  {
    "id": 410,
    "code": "132",
    "name": "Tržnica - GH Lent",
    "imageUrl": "",
    "routes": null,
    "departureTimes": null,
    "location": {
      "lat": 46.558601,
      "lon": 15.641611
    }
  },
  {
    "id": 411,
    "code": "376",
    "name": "Ul. Eve Lovše - Betnava",
    "imageUrl": "",
    "routes": null,
    "departureTimes": null,
    "location": {
      "lat": 46.537525,
      "lon": 15.639608
    }
  },
  {
    "id": 412,
    "code": "378",
    "name": "Betnavski gozd - Energetika",
    "imageUrl": "",
    "routes": null,
    "departureTimes": null,
    "location": {
      "lat": 46.536107,
      "lon": 15.641725
    }
  },
  {
    "id": 413,
    "code": "380",
    "name": "Ul. Eve Lovše - Betnavski gozd",
    "imageUrl": "",
    "routes": null,
    "departureTimes": null,
    "location": {
      "lat": 46.534833,
      "lon": 15.643674
    }
  },
  {
    "id": 414,
    "code": "374",
    "name": "Tržaška - Vodovodna",
    "imageUrl": "",
    "routes": null,
    "departureTimes": null,
    "location": {
      "lat": 46.533114,
      "lon": 15.646451
    }
  },
  {
    "id": 415,
    "code": "373",
    "name": "Tržaška cesta - Rutar",
    "imageUrl": "",
    "routes": null,
    "departureTimes": null,
    "location": {
      "lat": 46.521465,
      "lon": 15.648956
    }
  },
  {
    "id": 416,
    "code": "368",
    "name": "Tržaška cesta - Bauhaus",
    "imageUrl": "",
    "routes": null,
    "departureTimes": null,
    "location": {
      "lat": 46.519863,
      "lon": 15.650517
    }
  },
  {
    "id": 417,
    "code": "364",
    "name": "Trgovski center Merkur",
    "imageUrl": "",
    "routes": null,
    "departureTimes": null,
    "location": {
      "lat": 46.51779,
      "lon": 15.652969
    }
  },
  {
    "id": 418,
    "code": "369",
    "name": "Tržaška cesta - Bauhaus",
    "imageUrl": "",
    "routes": null,
    "departureTimes": null,
    "location": {
      "lat": 46.519863,
      "lon": 15.650517
    }
  },
  {
    "id": 419,
    "code": "375",
    "name": "Tržaška - Vodovodna",
    "imageUrl": "",
    "routes": null,
    "departureTimes": null,
    "location": {
      "lat": 46.533114,
      "lon": 15.646451
    }
  },
  {
    "id": 420,
    "code": "381",
    "name": "Ul. Eve Lovše - Betnavski gozd",
    "imageUrl": "",
    "routes": null,
    "departureTimes": null,
    "location": {
      "lat": 46.534833,
      "lon": 15.643674
    }
  },
  {
    "id": 421,
    "code": "379",
    "name": "Betnavski gozd - Energetika",
    "imageUrl": "",
    "routes": null,
    "departureTimes": null,
    "location": {
      "lat": 46.536107,
      "lon": 15.641725
    }
  },
  {
    "id": 422,
    "code": "377",
    "name": "Ul. Eve Lovše - Betnava",
    "imageUrl": "",
    "routes": null,
    "departureTimes": null,
    "location": {
      "lat": 46.537525,
      "lon": 15.639608
    }
  },
  {
    "id": 501,
    "code": "231",
    "name": "Oreško nabrežje 1",
    "imageUrl": "",
    "routes": null,
    "departureTimes": null,
    "location": {
      "lat": 46.556392,
      "lon": 15.66144
    }
  },
  {
    "id": 507,
    "code": "38",
    "name": "Črnogorska ul. 23",
    "imageUrl": "",
    "routes": null,
    "departureTimes": null,
    "location": {
      "lat": 46.545675,
      "lon": 15.656455
    }
  },
  {
    "id": 508,
    "code": "185",
    "name": "Makedonska",
    "imageUrl": "",
    "routes": null,
    "departureTimes": null,
    "location": {
      "lat": 46.542353,
      "lon": 15.657277
    }
  },
  {
    "id": 509,
    "code": "4",
    "name": "Belokranjska ulica 10",
    "imageUrl": "",
    "routes": null,
    "departureTimes": null,
    "location": {
      "lat": 46.54384,
      "lon": 15.65273
    }
  },
  {
    "id": 513,
    "code": "329",
    "name": "Šentiljska -  Hofer",
    "imageUrl": "",
    "routes": null,
    "departureTimes": null,
    "location": {
      "lat": 46.586361,
      "lon": 15.666012
    }
  },
  {
    "id": 518,
    "code": "407",
    "name": "Zolajeva - TŠC",
    "imageUrl": "",
    "routes": null,
    "departureTimes": null,
    "location": {
      "lat": 46.5259,
      "lon": 15.670344
    }
  },
  {
    "id": 527,
    "code": "158",
    "name": "Limbuš",
    "imageUrl": "",
    "routes": null,
    "departureTimes": null,
    "location": {
      "lat": 46.553985,
      "lon": 15.582052
    }
  },
  {
    "id": 539,
    "code": "183",
    "name": "OŠ Franca Rozmana Staneta",
    "imageUrl": "",
    "routes": null,
    "departureTimes": null,
    "location": {
      "lat": 46.563141,
      "lon": 15.655271
    }
  },
  {
    "id": 547,
    "code": "308",
    "name": "Razvanje - vrtnarstvo",
    "imageUrl": "",
    "routes": null,
    "departureTimes": null,
    "location": {
      "lat": 46.521791,
      "lon": 15.635159
    }
  },
  {
    "id": 555,
    "code": "314",
    "name": "Rošpoh - Hojnik",
    "imageUrl": "",
    "routes": null,
    "departureTimes": null,
    "location": {
      "lat": 46.597776,
      "lon": 15.619418
    }
  },
  {
    "id": 573,
    "code": "460",
    "name": "Šentiljska - TMI Košaki",
    "imageUrl": "",
    "routes": null,
    "departureTimes": null,
    "location": {
      "lat": 46.571096,
      "lon": 15.658169
    }
  },
  {
    "id": 574,
    "code": "351",
    "name": "Šentiljska - Počehovska",
    "imageUrl": "",
    "routes": null,
    "departureTimes": null,
    "location": {
      "lat": 46.57709,
      "lon": 15.657794
    }
  },
  {
    "id": 575,
    "code": "461",
    "name": "Šentiljska - veterinar",
    "imageUrl": "",
    "routes": null,
    "departureTimes": null,
    "location": {
      "lat": 46.581055,
      "lon": 15.663103
    }
  },
  {
    "id": 577,
    "code": "421",
    "name": "Zrkovska cesta",
    "imageUrl": "",
    "routes": null,
    "departureTimes": null,
    "location": {
      "lat": 46.552228,
      "lon": 15.682309
    }
  },
  {
    "id": 578,
    "code": "411",
    "name": "Zrkovska - Gasilski dom",
    "imageUrl": "",
    "routes": null,
    "departureTimes": null,
    "location": {
      "lat": 46.554349,
      "lon": 15.676661
    }
  },
  {
    "id": 579,
    "code": "418",
    "name": "Zrkovska - trgovina",
    "imageUrl": "",
    "routes": null,
    "departureTimes": null,
    "location": {
      "lat": 46.550678,
      "lon": 15.68725
    }
  },
  {
    "id": 580,
    "code": "419",
    "name": "Zrkovska - trgovina",
    "imageUrl": "",
    "routes": null,
    "departureTimes": null,
    "location": {
      "lat": 46.550678,
      "lon": 15.68725
    }
  },
  {
    "id": 581,
    "code": "146",
    "name": "Kronaveter",
    "imageUrl": "",
    "routes": null,
    "departureTimes": null,
    "location": {
      "lat": 46.556547,
      "lon": 15.733096
    }
  },
  {
    "id": 582,
    "code": "125",
    "name": "Knezar",
    "imageUrl": "",
    "routes": null,
    "departureTimes": null,
    "location": {
      "lat": 46.554546,
      "lon": 15.736294
    }
  },
  {
    "id": 583,
    "code": "413",
    "name": "Zrkovci - Na Gorci 54",
    "imageUrl": "",
    "routes": null,
    "departureTimes": null,
    "location": {
      "lat": 46.546532,
      "lon": 15.705432
    }
  },
  {
    "id": 584,
    "code": "414",
    "name": "Zrkovci - Na Gorci 65",
    "imageUrl": "",
    "routes": null,
    "departureTimes": null,
    "location": {
      "lat": 46.544222,
      "lon": 15.706825
    }
  },
  {
    "id": 585,
    "code": "209",
    "name": "Metava - odcep",
    "imageUrl": "",
    "routes": null,
    "departureTimes": null,
    "location": {
      "lat": 46.550119,
      "lon": 15.740569
    }
  },
  {
    "id": 586,
    "code": "405",
    "name": "Zimica - odcep",
    "imageUrl": "",
    "routes": null,
    "departureTimes": null,
    "location": {
      "lat": 46.551379,
      "lon": 15.743682
    }
  },
  {
    "id": 591,
    "code": "190",
    "name": "Malečnik - trgovina",
    "imageUrl": "",
    "routes": null,
    "departureTimes": null,
    "location": {
      "lat": 46.552497,
      "lon": 15.708171
    }
  },
  {
    "id": 594,
    "code": "361",
    "name": "Trčova - Griček",
    "imageUrl": "",
    "routes": null,
    "departureTimes": null,
    "location": {
      "lat": 46.539504,
      "lon": 15.720569
    }
  },
  {
    "id": 595,
    "code": "226",
    "name": "Novak",
    "imageUrl": "",
    "routes": null,
    "departureTimes": null,
    "location": {
      "lat": 46.537569,
      "lon": 15.724293
    }
  },
  {
    "id": 596,
    "code": "207",
    "name": "Metava - Duplek križišče",
    "imageUrl": "",
    "routes": null,
    "departureTimes": null,
    "location": {
      "lat": 46.534931,
      "lon": 15.731634
    }
  },
  {
    "id": 598,
    "code": "141",
    "name": "Kraljeviča Marka ulica",
    "imageUrl": "",
    "routes": null,
    "departureTimes": null,
    "location": {
      "lat": 46.558764,
      "lon": 15.663918
    }
  },
  {
    "id": 599,
    "code": "142",
    "name": "Kraljeviča Marka ulica",
    "imageUrl": "",
    "routes": null,
    "departureTimes": null,
    "location": {
      "lat": 46.558764,
      "lon": 15.663918
    }
  },
  {
    "id": 600,
    "code": "211",
    "name": "Avtobusna postaja",
    "imageUrl": "",
    "routes": null,
    "departureTimes": null,
    "location": {
      "lat": 46.559717,
      "lon": 15.65543
    }
  },
  {
    "id": 602,
    "code": "434",
    "name": "Kamenškova",
    "imageUrl": "",
    "routes": null,
    "departureTimes": null,
    "location": {
      "lat": 46.549534,
      "lon": 15.611103
    }
  },
  {
    "id": 603,
    "code": "429",
    "name": "Kamenškova",
    "imageUrl": "",
    "routes": null,
    "departureTimes": null,
    "location": {
      "lat": 46.549534,
      "lon": 15.611103
    }
  },
  {
    "id": 604,
    "code": "435",
    "name": "MČ Pobrežje",
    "imageUrl": "",
    "routes": null,
    "departureTimes": null,
    "location": {
      "lat": 46.549011,
      "lon": 15.667261
    }
  },
  {
    "id": 609,
    "code": "432",
    "name": "Mladinska - Vrbanska",
    "imageUrl": "",
    "routes": null,
    "departureTimes": null,
    "location": {
      "lat": 46.564861,
      "lon": 15.634671
    }
  },
  {
    "id": 611,
    "code": "433",
    "name": "Turnerjeva",
    "imageUrl": "",
    "routes": null,
    "departureTimes": null,
    "location": {
      "lat": 46.562925,
      "lon": 15.630317
    }
  },
  {
    "id": 614,
    "code": "441",
    "name": "Lesjakova 2",
    "imageUrl": "",
    "routes": null,
    "departureTimes": null,
    "location": {
      "lat": 46.537168,
      "lon": 15.59225
    }
  },
  {
    "id": 615,
    "code": "442",
    "name": "Zvezna ulica",
    "imageUrl": "",
    "routes": null,
    "departureTimes": null,
    "location": {
      "lat": 46.5360899,
      "lon": 15.5963853
    }
  },
  {
    "id": 616,
    "code": "444",
    "name": "Bezjakova",
    "imageUrl": "",
    "routes": null,
    "departureTimes": null,
    "location": {
      "lat": 46.5403683,
      "lon": 15.5894664
    }
  },
  {
    "id": 617,
    "code": "445",
    "name": "Lackova - Na gorco",
    "imageUrl": "",
    "routes": null,
    "departureTimes": null,
    "location": {
      "lat": 46.545256,
      "lon": 15.60047
    }
  },
  {
    "id": 619,
    "code": "447",
    "name": "Lackova - Mlada lipa",
    "imageUrl": "",
    "routes": null,
    "departureTimes": null,
    "location": {
      "lat": 46.540938,
      "lon": 15.606056
    }
  },
  {
    "id": 620,
    "code": "448",
    "name": "Lackova - Ul. Jelenčevih",
    "imageUrl": "",
    "routes": null,
    "departureTimes": null,
    "location": {
      "lat": 46.547277,
      "lon": 15.59738
    }
  },
  {
    "id": 621,
    "code": "449",
    "name": "Lackova - Ul. Jelenčevih",
    "imageUrl": "",
    "routes": null,
    "departureTimes": null,
    "location": {
      "lat": 46.547277,
      "lon": 15.59738
    }
  },
  {
    "id": 622,
    "code": "443",
    "name": "Ob ribniku",
    "imageUrl": "",
    "routes": null,
    "departureTimes": null,
    "location": {
      "lat": 46.539139,
      "lon": 15.599502
    }
  },
  {
    "id": 623,
    "code": "450",
    "name": "Trčova 168",
    "imageUrl": "",
    "routes": null,
    "departureTimes": null,
    "location": {
      "lat": 46.542435,
      "lon": 15.719209
    }
  },
  {
    "id": 624,
    "code": "451",
    "name": "Trčova 168",
    "imageUrl": "",
    "routes": null,
    "departureTimes": null,
    "location": {
      "lat": 46.542435,
      "lon": 15.719209
    }
  },
  {
    "id": 625,
    "code": "452",
    "name": "OŠ Bojana Ilicha",
    "imageUrl": "",
    "routes": null,
    "departureTimes": null,
    "location": {
      "lat": 46.562953,
      "lon": 15.643877
    }
  },
  {
    "id": 626,
    "code": "453",
    "name": "Mladinska - muzej Maribor",
    "imageUrl": "",
    "routes": null,
    "departureTimes": null,
    "location": {
      "lat": 46.563011,
      "lon": 15.647843
    }
  },
  {
    "id": 627,
    "code": "527",
    "name": "Zrkovci - polje",
    "imageUrl": "",
    "routes": null,
    "departureTimes": null,
    "location": {
      "lat": 46.53641,
      "lon": 15.71018
    }
  },
  {
    "id": 628,
    "code": "528",
    "name": "Zrkovci - polje",
    "imageUrl": "",
    "routes": null,
    "departureTimes": null,
    "location": {
      "lat": 46.53641,
      "lon": 15.71018
    }
  },
  {
    "id": 633,
    "code": "533",
    "name": "P\u0026R Koroški most",
    "imageUrl": "",
    "routes": null,
    "departureTimes": null,
    "location": {
      "lat": 46.561176,
      "lon": 15.627064
    }
  },
  {
    "id": 634,
    "code": "534",
    "name": "Univerzitetni kampus",
    "imageUrl": "",
    "routes": null,
    "departureTimes": null,
    "location": {
      "lat": 46.564271,
      "lon": 15.623099
    }
  },
  {
    "id": 636,
    "code": "536",
    "name": "P\u0026R Koroški most",
    "imageUrl": "",
    "routes": null,
    "departureTimes": null,
    "location": {
      "lat": 46.561176,
      "lon": 15.627064
    }
  },
  {
    "id": 637,
    "code": "537",
    "name": "Dvorana Tabor - Gorkega",
    "imageUrl": "",
    "routes": null,
    "departureTimes": null,
    "location": {
      "lat": 46.548779,
      "lon": 15.636555
    }
  },
  {
    "id": 638,
    "code": "538",
    "name": "Rošpoh - vrtovi",
    "imageUrl": "",
    "routes": null,
    "departureTimes": null,
    "location": {
      "lat": 46.608627,
      "lon": 15.625915
    }
  },
  {
    "id": 639,
    "code": "540",
    "name": "Rošpoh - vrtovi",
    "imageUrl": "",
    "routes": null,
    "departureTimes": null,
    "location": {
      "lat": 46.608627,
      "lon": 15.625915
    }
  },
  {
    "id": 640,
    "code": "539",
    "name": "Morski jarek - Kozjak",
    "imageUrl": "",
    "routes": null,
    "departureTimes": null,
    "location": {
      "lat": 46.609503,
      "lon": 15.631009
    }
  },
  {
    "id": 641,
    "code": "541",
    "name": "Belokranjska ulica 10",
    "imageUrl": "",
    "routes": null,
    "departureTimes": null,
    "location": {
      "lat": 46.54384,
      "lon": 15.65273
    }
  },
  {
    "id": 642,
    "code": "542",
    "name": "Europark - Titov most",
    "imageUrl": "",
    "routes": null,
    "departureTimes": null,
    "location": {
      "lat": 46.554466,
      "lon": 15.650609
    }
  },
  {
    "id": 643,
    "code": "543",
    "name": "Tržaška - Ptujska",
    "imageUrl": "",
    "routes": null,
    "departureTimes": null,
    "location": {
      "lat": 46.538819,
      "lon": 15.64702
    }
  },
  {
    "id": 644,
    "code": "544",
    "name": "Europark - Titov most",
    "imageUrl": "",
    "routes": null,
    "departureTimes": null,
    "location": {
      "lat": 46.554466,
      "lon": 15.650609
    }
  },
  {
    "id": 646,
    "code": "546",
    "name": "Morski jarek - Rošpoh",
    "imageUrl": "",
    "routes": null,
    "departureTimes": null,
    "location": {
      "lat": 46.60933,
      "lon": 15.63847
    }
  },
  {
    "id": 647,
    "code": "547",
    "name": "Morski jarek - Kozjak",
    "imageUrl": "",
    "routes": null,
    "departureTimes": null,
    "location": {
      "lat": 46.609503,
      "lon": 15.631009
    }
  },
  {
    "id": 648,
    "code": "564",
    "name": "Šarhova",
    "imageUrl": "",
    "routes": null,
    "departureTimes": null,
    "location": {
      "lat": 46.55322,
      "lon": 15.6173
    }
  },
  {
    "id": 704,
    "code": "462",
    "name": "Botanični vrt",
    "imageUrl": "",
    "routes": null,
    "departureTimes": null,
    "location": {
      "lat": 46.507501,
      "lon": 15.639463
    }
  },
  {
    "id": 705,
    "code": "464",
    "name": "Podružnica OŠ Franceta Prešerna",
    "imageUrl": "",
    "routes": null,
    "departureTimes": null,
    "location": {
      "lat": 46.512917,
      "lon": 15.635321
    }
  },
  {
    "id": 905,
    "code": "633",
    "name": "Glavni trg - Rotovž",
    "imageUrl": "",
    "routes": null,
    "departureTimes": null,
    "location": {
      "lat": 46.557431,
      "lon": 15.645841
    }
  },
  {
    "id": 906,
    "code": "634",
    "name": "Glavni trg - Rotovž",
    "imageUrl": "",
    "routes": null,
    "departureTimes": null,
    "location": {
      "lat": 46.557431,
      "lon": 15.645841
    }
  },
  {
    "id": 907,
    "code": "635",
    "name": "Tržnica - GH Lent",
    "imageUrl": "",
    "routes": null,
    "departureTimes": null,
    "location": {
      "lat": 46.558601,
      "lon": 15.641611
    }
  },
  {
    "id": 908,
    "code": "636",
    "name": "UKC - Europark",
    "imageUrl": "",
    "routes": null,
    "departureTimes": null,
    "location": {
      "lat": 46.551291,
      "lon": 15.652211
    }
  },
  {
    "id": 909,
    "code": "637",
    "name": "Europark",
    "imageUrl": "",
    "routes": null,
    "departureTimes": null,
    "location": {
      "lat": 46.554431,
      "lon": 15.651911
    }
  },
  {
    "id": 910,
    "code": "643",
    "name": "Tabor - Jadranska",
    "imageUrl": "",
    "routes": null,
    "departureTimes": null,
    "location": {
      "lat": 46.536917,
      "lon": 15.643153
    }
  },
  {
    "id": 911,
    "code": "650",
    "name": "Cankarjeva",
    "imageUrl": "",
    "routes": null,
    "departureTimes": null,
    "location": {
      "lat": 46.560961,
      "lon": 15.653141
    }
  },
  {
    "id": 912,
    "code": "646",
    "name": "Dom pod Gorco",
    "imageUrl": "",
    "routes": null,
    "departureTimes": null,
    "location": {
      "lat": 46.555861,
      "lon": 15.612571
    }
  },
  {
    "id": 913,
    "code": "647",
    "name": "Dom pod Gorco",
    "imageUrl": "",
    "routes": null,
    "departureTimes": null,
    "location": {
      "lat": 46.555861,
      "lon": 15.612571
    }
  },
  {
    "id": 914,
    "code": "644",
    "name": "OŠ Franca Rozmana Staneta",
    "imageUrl": "",
    "routes": null,
    "departureTimes": null,
    "location": {
      "lat": 46.563141,
      "lon": 15.655271
    }
  },
  {
    "id": 915,
    "code": "648",
    "name": "Maribox",
    "imageUrl": "",
    "routes": null,
    "departureTimes": null,
    "location": {
      "lat": 46.557144,
      "lon": 15.652877
    }
  },
  {
    "id": 916,
    "code": "651",
    "name": "Maribox",
    "imageUrl": "",
    "routes": null,
    "departureTimes": null,
    "location": {
      "lat": 46.557144,
      "lon": 15.652877
    }
  },
  {
    "id": 917,
    "code": "655",
    "name": "Mladinska - Vrbanska",
    "imageUrl": "",
    "routes": null,
    "departureTimes": null,
    "location": {
      "lat": 46.564861,
      "lon": 15.634671
    }
  },
  {
    "id": 920,
    "code": "645",
    "name": "Zdravstveni dom Tezno",
    "imageUrl": "",
    "routes": null,
    "departureTimes": null,
    "location": {
      "lat": 46.533936,
      "lon": 15.675329
    }
  },
  {
    "id": 921,
    "code": "642",
    "name": "Zdravstveni dom Tezno",
    "imageUrl": "",
    "routes": null,
    "departureTimes": null,
    "location": {
      "lat": 46.533936,
      "lon": 15.675329
    }
  },
  {
    "id": 922,
    "code": "657",
    "name": "Teplyjevo naselje",
    "imageUrl": "",
    "routes": null,
    "departureTimes": null,
    "location": {
      "lat": 46.541041,
      "lon": 15.602081
    }
  },
  {
    "id": 923,
    "code": "658",
    "name": "Teplyjevo naselje",
    "imageUrl": "",
    "routes": null,
    "departureTimes": null,
    "location": {
      "lat": 46.541041,
      "lon": 15.602081
    }
  },
  {
    "id": 924,
    "code": "656",
    "name": "Vrbanska",
    "imageUrl": "",
    "routes": null,
    "departureTimes": null,
    "location": {
      "lat": 46.562125,
      "lon": 15.636867
    }
  },
  {
    "id": 925,
    "code": "659",
    "name": "Vrbanska",
    "imageUrl": "",
    "routes": null,
    "departureTimes": null,
    "location": {
      "lat": 46.562125,
      "lon": 15.636867
    }
  },
  {
    "id": 926,
    "code": "660",
    "name": "Supernova",
    "imageUrl": "",
    "routes": null,
    "departureTimes": null,
    "location": {
      "lat": 46.545991,
      "lon": 15.618611
    }
  },
  {
    "id": 927,
    "code": "654",
    "name": "MČ Pobrežje",
    "imageUrl": "",
    "routes": null,
    "departureTimes": null,
    "location": {
      "lat": 46.549011,
      "lon": 15.667261
    }
  },
  {
    "id": 935,
    "code": "649",
    "name": "Turnerjeva",
    "imageUrl": "",
    "routes": null,
    "departureTimes": null,
    "location": {
      "lat": 46.562925,
      "lon": 15.630317
    }
  },
  {
    "id": 938,
    "code": "666",
    "name": "Prometna šola - Na Poljanah",
    "imageUrl": "",
    "routes": null,
    "departureTimes": null,
    "location": {
      "lat": 46.552724,
      "lon": 15.624305
    }
  }
]
